[{
    "index": 1,
    "name": "이주민지원공익센터 감동",
    "sigungu": "서초구",
    "type": "무료법률상담",
    "addr": "서초구 서초대로 45길 20 변호사교육문화회관 410호",
    "tel": "02-537-5459",
    "time": "월~금 10:00~18:30",
    "lang": "영어",
    "detail": "공익무료법률상담 소송지원",
    "lat": 37.49414561,
    "lng": 127.008965,
    "law": 1,
    "medical": 0,
    "consulting": 0,
    "edu": 0
  },
  {
    "index": 2,
    "name": "재단법인 피플",
    "sigungu": "영등포구",
    "type": "무료법률상담",
    "addr": "영등포구 선유로 28길 6 노무빌딩 1층",
    "tel": "02-2675-5783",
    "time": "월~금 09:00~18:00",
    "lang": "영어",
    "detail": "노무·산재상담 소송지원",
    "lat": 37.52421832,
    "lng": 126.8912993,
    "law": 1,
    "medical": 0,
    "consulting": 0,
    "edu": 0
  },
  {
    "index": 3,
    "name": "공익법센터 어필",
    "sigungu": "종로구",
    "type": "무료법률상담",
    "addr": "종로구 율곡로 47, 505호 (안국동, 걸스카웃빌딩)",
    "tel": "02-3478-0529",
    "time": "월~금 10:30~18:00",
    "lang": "영어",
    "detail": "공익무료법률상담 소송지원(구금이주민, 난민, 인신매매피해자지원)",
    "lat": 37.5762989,
    "lng": 126.9823886,
    "law": 1,
    "medical": 0,
    "consulting": 0,
    "edu": 0
  },
  {
    "index": 4,
    "name": "공익인권법재단 공감",
    "sigungu": "종로구",
    "type": "무료법률상담",
    "addr": "종로구 창덕궁길 29-6 (원서동 북촌창우극장 3층)",
    "tel": "02-3675-7740",
    "time": "월~금 10:00~18:00",
    "lang": "영어",
    "detail": "공익소송 변론지원",
    "lat": 37.57890795,
    "lng": 126.9888602,
    "law": 1,
    "medical": 0,
    "consulting": 0,
    "edu": 0
  },
  {
    "index": 5,
    "name": "선재마을의료회 봉은사진료소",
    "sigungu": "강남구",
    "type": "무료진료",
    "addr": "강남구 봉은사로 531 봉은사내",
    "tel": "02-549-1709",
    "time": "일 10:00~14:00 한방 1/3주 일",
    "lang": "러시아어, 영어",
    "detail": "내과┃가정의학과┃외과┃이비인후과┃치과┃한방진료┃약국운영",
    "lat": 37.51582444,
    "lng": 127.0577331,
    "law": 0,
    "medical": 1,
    "consulting": 0,
    "edu": 0
  },
  {
    "index": 6,
    "name": "강동외국인근로자센터",
    "sigungu": "강동구",
    "type": "무료진료",
    "addr": "강동구 성안로13길 56",
    "tel": "02-478-0126",
    "time": "월~일 09:00~18:00",
    "lang": "네팔어, 베트남어, 영어, 중국어, 필리핀어",
    "detail": "상담┃한국어┃직업교육┃교육문화┃아동가족┃의료",
    "lat": 37.53220561,
    "lng": 127.1293486,
    "law": 0,
    "medical": 1,
    "consulting": 0,
    "edu": 0
  },
  {
    "index": 7,
    "name": "(사)한국이주민건강협회",
    "sigungu": "서대문구",
    "type": "무료진료",
    "addr": "서대문구 통일로 9길 12, 2층",
    "tel": "02-3147-0516",
    "time": "월~금 10:00~18:00",
    "lang": "영어",
    "detail": "의료상담┃무료순회진료┃건강교육┃이주아동심리치료지원┃본국개발지원",
    "lat": 37.56727304,
    "lng": 126.9643312,
    "law": 0,
    "medical": 1,
    "consulting": 0,
    "edu": 0
  },
  {
    "index": 8,
    "name": "금천외국인근로자센터",
    "sigungu": "금천구",
    "type": "무료진료",
    "addr": "금천구 가산로 129",
    "tel": "02-868-5208",
    "time": "월~금 09:00~21:00, 토 09:00~18:00",
    "lang": "베트남어, 영어, 중국어, 필리핀어",
    "detail": "상담┃한국어┃직업교육┃교육문화┃아동가족┃의료",
    "lat": 37.47689074,
    "lng": 126.891784,
    "law": 0,
    "medical": 1,
    "consulting": 0,
    "edu": 0
  },
  {
    "index": 9,
    "name": "희년의료공제회",
    "sigungu": "금천구",
    "type": "무료진료",
    "addr": "금천구 범안로15길 14, 덕우빌딩2층(독산동)",
    "tel": "02-854-7828",
    "time": "월, 화, 목, 금 10:00~18:00, 수 10:00~17:00, 일 14:00~18:00",
    "lang": "네팔어, 영어, 터키어",
    "detail": "의료상담┃무료건강검진과 진료┃의료비지원┃의료공제회 운영",
    "lat": 37.46720803,
    "lng": 126.8932629,
    "law": 0,
    "medical": 1,
    "consulting": 0,
    "edu": 0
  },
  {
    "index": 10,
    "name": "성동외국인근로자센터",
    "sigungu": "성동구",
    "type": "무료진료",
    "addr": "성동구 무학로 6길 47-1",
    "tel": "02-2282-7974",
    "time": "화~금, 일 09:30~18:30",
    "lang": "몽골어, 베트남어, 영어, 중국어",
    "detail": "상담┃한국어┃교육문화┃아동가족┃의료",
    "lat": 37.56491248,
    "lng": 127.0355273,
    "law": 0,
    "medical": 1,
    "consulting": 0,
    "edu": 0
  },
  {
    "index": 11,
    "name": "성북외국인근로자센터",
    "sigungu": "성북구",
    "type": "무료진료",
    "addr": "성북구 오패산로 16길 23",
    "tel": "02-911-2884",
    "time": "월~일 09:00~18:00",
    "lang": "몽골어, 베트남어, 영어, 중국어, 필리핀어",
    "detail": "상담┃한국어┃직업교육┃교육문화┃의료",
    "lat": 37.60890914,
    "lng": 127.0375144,
    "law": 0,
    "medical": 1,
    "consulting": 0,
    "edu": 0
  },
  {
    "index": 12,
    "name": "서남권글로벌센터",
    "sigungu": "영등포구",
    "type": "무료진료",
    "addr": "영등포구 도신로 40",
    "tel": "02-2229-4900",
    "time": "화~금, 일 09:00~18:00",
    "lang": "네팔어, 몽골어, 베트남어, 영어, 우즈벡어,중국어, 태국어, 파키스탄어, 필리핀어",
    "detail": "상담┃한국어┃의료┃교육문화",
    "lat": 37.50474769,
    "lng": 126.8974122,
    "law": 0,
    "medical": 1,
    "consulting": 0,
    "edu": 0
  },
  {
    "index": 13,
    "name": "서울시의사회 의료봉사단",
    "sigungu": "영등포구",
    "type": "무료진료",
    "addr": "영등포구 버드나루로 18길 5",
    "tel": "02-2676-9030",
    "time": "일 13:00~17:00(접수 12:00~15:30까지)",
    "lang": "한국어",
    "detail": "내과┃비뇨기과┃산부인과┃안과┃영상의학과┃이비인후과┃정형외과┃치과┃피부과",
    "lat": 37.5280461,
    "lng": 126.9087161,
    "law": 0,
    "medical": 1,
    "consulting": 0,
    "edu": 0
  },
  {
    "index": 14,
    "name": "마하 이주민지원단체협의회",
    "sigungu": "종로구",
    "type": "무료진료",
    "addr": "종로구 우정국로 67 전법회관 3층 B동",
    "tel": "02-720-7095",
    "time": "월~금 09:30~18:00",
    "lang": "영어",
    "detail": "의료지원┃문화체험┃한국어┃외국인공동체 지원",
    "lat": 37.57505812,
    "lng": 126.9824626,
    "law": 0,
    "medical": 1,
    "consulting": 0,
    "edu": 0
  },
  {
    "index": 15,
    "name": "라파엘클리닉",
    "sigungu": "성북구",
    "type": "무료진료",
    "addr": "성북구 창경궁로 43길 7 라파엘센터",
    "tel": "02-763-7595",
    "time": "일 09:30~15:30",
    "lang": "영어, 중국어, 필리핀어",
    "detail": "가정의학과┃마취 통증의학과┃비뇨기과┃산부인과┃신경외과┃안과┃이비인후과┃일반외과┃재활의학과┃치과 등",
    "lat": 37.58826791,
    "lng": 127.0043432,
    "law": 0,
    "medical": 1,
    "consulting": 0,
    "edu": 0
  },
  {
    "index": 16,
    "name": "서남권글로벌센터",
    "sigungu": "영등포구",
    "type": "무료진료",
    "addr": "영등포구 도신로 40",
    "tel": "02-2229-4900",
    "time": "화~금, 일 09:00~18:00",
    "lang": "네팔어, 몽골어, 베트남어, 영어, 우즈벡어,중국어, 태국어, 파키스탄어, 필리핀어",
    "detail": "상담┃한국어┃의료┃교육문화",
    "lat": 37.50474769,
    "lng": 126.8974122,
    "law": 0,
    "medical": 1,
    "consulting": 0,
    "edu": 0
  },
  {
    "index": 17,
    "name": "온드림 희망진료센터(서울적십자병원)",
    "sigungu": "종로구",
    "type": "무료진료",
    "addr": "종로구 새문안로 9 적십자병원 3층",
    "tel": "02-2002-8683",
    "time": "월~금 09:00~16:00",
    "lang": "영어",
    "detail": "의료",
    "lat": 37.56676211,
    "lng": 126.9672019,
    "law": 0,
    "medical": 1,
    "consulting": 0,
    "edu": 0
  },
  {
    "index": 18,
    "name": "아가페클리닉",
    "sigungu": "중구",
    "type": "무료진료",
    "addr": "중구 정동 34번지 정동제일교회 사회교육관",
    "tel": "02-753-0001",
    "time": "2주, 4주 일 14:00~17:00",
    "lang": "영어",
    "detail": "의료",
    "lat": 37.5654383,
    "lng": 126.970156,
    "law": 0,
    "medical": 1,
    "consulting": 0,
    "edu": 0
  },
  {
    "index": 19,
    "name": "이주민센터 친구",
    "sigungu": "영등포구",
    "type": "무료법률상담",
    "addr": "영등포구 도림로 127번지 3층",
    "tel": "02-6406-7179",
    "time": "월~금 10:00~17:30",
    "lang": "몽골어, 영어, 일본어, 태국어",
    "detail": "공익무료법률상담┃소송지원┃문화활동",
    "lat": 37.4927922,
    "lng": 126.8963339,
    "law": 1,
    "medical": 0,
    "consulting": 0,
    "edu": 0
  },
  {
    "index": 20,
    "name": "강남구다문화가족지원센터",
    "sigungu": "강남구",
    "type": "일반상담",
    "addr": "강남구 개포로 617-8 4층",
    "tel": "02-3414-3346",
    "time": "월~금 09:00~18:00",
    "lang": "중국어",
    "detail": "상담┃한국어┃교육문화┃아동가족┃직업교육┃통번역",
    "lat": 37.49405188,
    "lng": 127.0777588,
    "law": 0,
    "medical": 0,
    "consulting": 1,
    "edu": 0
  },
  {
    "index": 21,
    "name": "강남글로벌비즈니스센터",
    "sigungu": "강남구",
    "type": "일반상담",
    "addr": "강남구 영동대로 513 코엑스 2층 A100",
    "tel": "02-6001-7240",
    "time": "월~금 09:00~18:00",
    "lang": "영어, 일본어, 중국어",
    "detail": "비즈니스상담┃창업교육┃창업보육",
    "lat": 37.51182328,
    "lng": 127.0591597,
    "law": 0,
    "medical": 0,
    "consulting": 1,
    "edu": 0
  },
  {
    "index": 22,
    "name": "역삼글로벌빌리지센터",
    "sigungu": "강남구",
    "type": "일반상담",
    "addr": "강남구 역삼로 7길 16 역삼1문화센터",
    "tel": "02-3453-9038",
    "time": "월~금 09:00~18:00",
    "lang": "네팔어, 영어",
    "detail": "상담┃한국어┃교육문화",
    "lat": 37.49537384,
    "lng": 127.0332825,
    "law": 0,
    "medical": 0,
    "consulting": 1,
    "edu": 0
  },
  {
    "index": 23,
    "name": "강동구다문화가족지원센터",
    "sigungu": "강동구",
    "type": "일반상담",
    "addr": "강동구 양재대로 138길 41 2층",
    "tel": "02-473-4986",
    "time": "월~금 09:00~18:00",
    "lang": "베트남어",
    "detail": "상담┃한국어┃교육문화┃아동가족┃직업교육┃통번역",
    "lat": 37.549759,
    "lng": 127.1462315,
    "law": 0,
    "medical": 0,
    "consulting": 1,
    "edu": 0
  },
  {
    "index": 24,
    "name": "강북구다문화가족지원센터",
    "sigungu": "강북구",
    "type": "일반상담",
    "addr": "강북구 인수봉로 66길 9 강북구육아종합지원센터 4층",
    "tel": "02-945-7381",
    "time": "월~금 09:00~18:00",
    "lang": "베트남어",
    "detail": "상담┃한국어┃교육문화┃아동가족┃직업교육┃통번역",
    "lat": 37.64047781,
    "lng": 127.0125765,
    "law": 0,
    "medical": 0,
    "consulting": 1,
    "edu": 0
  },
  {
    "index": 25,
    "name": "강서구다문화가족지원센터",
    "sigungu": "강서구",
    "type": "일반상담",
    "addr": "강서구 강서로 5길 50 곰달래문화복지센터 4층",
    "tel": "02-2606-2037",
    "time": "월~금 09:00~18:00",
    "lang": "베트남어",
    "detail": "상담┃한국어┃교육문화┃아동가족┃직업교육┃통번역",
    "lat": 37.52905871,
    "lng": 126.848899,
    "law": 0,
    "medical": 0,
    "consulting": 1,
    "edu": 0
  },
  {
    "index": 26,
    "name": "관악구다문화가족지원센터",
    "sigungu": "관악구",
    "type": "일반상담",
    "addr": "관악구 신림로3길 35, 남파 김남준기념관 3층",
    "tel": "02-883-9383",
    "time": "월~금 09:00~18:00",
    "lang": "베트남어",
    "detail": "상담┃한국어┃교육문화┃아동가족┃직업교육┃통번역",
    "lat": 37.46759657,
    "lng": 126.9448723,
    "law": 0,
    "medical": 0,
    "consulting": 1,
    "edu": 0
  },
  {
    "index": 27,
    "name": "광진구다문화가족지원센터",
    "sigungu": "광진구",
    "type": "일반상담",
    "addr": "광진구 아차산로 24길 17(자양동) 5층",
    "tel": "02-458-0666",
    "time": "월~금 09:00~18:00",
    "lang": "중국어",
    "detail": "상담┃한국어┃교육문화┃아동가족┃직업교육┃통번역",
    "lat": 37.54026298,
    "lng": 127.0651113,
    "law": 0,
    "medical": 0,
    "consulting": 1,
    "edu": 0
  },
  {
    "index": 28,
    "name": "구로구다문화가족지원센터",
    "sigungu": "구로구",
    "type": "일반상담",
    "addr": "구로구 디지털로 32가길 50",
    "tel": "02-869-0317",
    "time": "월~금 09:00~18:00",
    "lang": "베트남어, 중국어, 캄보디아어",
    "detail": "상담┃한국어┃교육문화┃아동가족┃직업교육┃통번역",
    "lat": 37.48137587,
    "lng": 126.8977517,
    "law": 0,
    "medical": 0,
    "consulting": 1,
    "edu": 0
  },
  {
    "index": 29,
    "name": "(사)한국이주노동자복지회",
    "sigungu": "구로구",
    "type": "일반상담",
    "addr": "구로구 구로중앙로 217-1 미성빌딩 5층",
    "tel": "02-858-4115",
    "time": "월~목, 일 09:30~16:30",
    "lang": "영어, 중국어",
    "detail": "성인 및 이주청소년 컴퓨터교육┃문화활동지원",
    "lat": 37.50511333,
    "lng": 126.8765158,
    "law": 0,
    "medical": 0,
    "consulting": 1,
    "edu": 0
  },
  {
    "index": 30,
    "name": "한국외국인력지원센터",
    "sigungu": "구로구",
    "type": "일반상담",
    "addr": "구로구 남부순환로 1291 B동 1, 3, 4층",
    "tel": "1644-0644",
    "time": "월~금, 일 09:00~18:00",
    "lang": "미얀마어, 몽골어, 베트남어, 스리랑카어,우즈벡어, 중국어, 캄보디아어, 태국어, 파키스탄어",
    "detail": "상담┃한국어┃직업교육┃교육문화",
    "lat": 37.47888968,
    "lng": 126.8943272,
    "law": 0,
    "medical": 0,
    "consulting": 1,
    "edu": 0
  },
  {
    "index": 31,
    "name": "금천구다문화가족지원센터",
    "sigungu": "금천구",
    "type": "일반상담",
    "addr": "금천구 금하로 11길 40",
    "tel": "02-803-7743",
    "time": "월~금 09:00~18:00",
    "lang": "베트남어",
    "detail": "상담┃한국어┃교육문화┃아동가족┃직업교육┃통번역",
    "lat": 37.45543569,
    "lng": 126.9041027,
    "law": 0,
    "medical": 0,
    "consulting": 1,
    "edu": 0
  },
  {
    "index": 32,
    "name": "금천글로벌빌리지센터",
    "sigungu": "금천구",
    "type": "일반상담",
    "addr": "금천구 가산로 116 3층",
    "tel": "02-2627-2884",
    "time": "월~금 09:00~18:00",
    "lang": "영어, 중국어",
    "detail": "상담┃한국어┃교육문화┃커뮤니티입주시설",
    "lat": 37.4761063,
    "lng": 126.8931463,
    "law": 0,
    "medical": 0,
    "consulting": 1,
    "edu": 0
  },
  {
    "index": 33,
    "name": "금천외국인근로자센터",
    "sigungu": "금천구",
    "type": "일반상담",
    "addr": "금천구 가산로 129",
    "tel": "02-868-5208",
    "time": "월~금 09:00~21:00, 토 09:00~18:00",
    "lang": "베트남어, 영어, 중국어, 필리핀어",
    "detail": "상담┃한국어┃직업교육┃교육문화┃아동가족┃의료",
    "lat": 37.47689074,
    "lng": 126.891784,
    "law": 0,
    "medical": 0,
    "consulting": 1,
    "edu": 0
  },
  {
    "index": 34,
    "name": "노원구다문화가족지원센터",
    "sigungu": "노원구",
    "type": "일반상담",
    "addr": "노원구 동일로 173가길 94 가온빌딩 3층",
    "tel": "02-979-3502",
    "time": "월~금 09:00~18:00",
    "lang": "베트남어",
    "detail": "상담┃한국어┃교육문화┃아동가족┃직업교육┃통번역",
    "lat": 37.62247244,
    "lng": 127.0726409,
    "law": 0,
    "medical": 0,
    "consulting": 1,
    "edu": 0
  },
  {
    "index": 35,
    "name": "도봉구다문화가족지원센터",
    "sigungu": "도봉구",
    "type": "일반상담",
    "addr": "도봉구 도봉로 552, 도봉구민회관 2층",
    "tel": "02-990-5432",
    "time": "월~금 09:00~18:00",
    "lang": "베트남어",
    "detail": "상담┃한국어┃교육문화┃아동가족┃직업교육┃통번역",
    "lat": 37.65416709,
    "lng": 127.0386839,
    "law": 0,
    "medical": 0,
    "consulting": 1,
    "edu": 0
  },
  {
    "index": 36,
    "name": "동대문구다문화가족지원센터",
    "sigungu": "동대문구",
    "type": "일반상담",
    "addr": "동대문구 청계천로 521, 다사랑행복센터 7층",
    "tel": "02-957-1073",
    "time": "월~금 09:00~18:00",
    "lang": "베트남어, 일본어, 중국어, 필리핀어",
    "detail": "상담┃한국어┃교육문화┃아동가족┃직업교육┃통번역",
    "lat": 37.57181454,
    "lng": 127.0340455,
    "law": 0,
    "medical": 0,
    "consulting": 1,
    "edu": 0
  },
  {
    "index": 37,
    "name": "동작구다문화가족지원센터",
    "sigungu": "동작구",
    "type": "일반상담",
    "addr": "동작구 동작대로 29길 63-26 3층",
    "tel": "02-599-3260",
    "time": "월~금 09:00~18:00",
    "lang": "베트남어, 중국어",
    "detail": "상담┃한국어┃교육문화┃아동가족┃직업교육┃통번역",
    "lat": 37.48837377,
    "lng": 126.9775891,
    "law": 0,
    "medical": 0,
    "consulting": 1,
    "edu": 0
  },
  {
    "index": 38,
    "name": "피난처",
    "sigungu": "동작구",
    "type": "일반상담",
    "addr": "동작구 장승배기로 19라길 35 (상도동 362-47)",
    "tel": "02-871-5382",
    "time": "월, 화, 수, 금 09:00~16:00",
    "lang": "아랍어, 영어, 프랑스어",
    "detail": "난민지원┃탈북민 지원┃자립지원┃아동가족지원",
    "lat": 37.5070058,
    "lng": 126.936017,
    "law": 0,
    "medical": 0,
    "consulting": 1,
    "edu": 0
  },
  {
    "index": 39,
    "name": "천주교 서울대교구 이주사목위원회",
    "sigungu": "마포구",
    "type": "일반상담",
    "addr": "마포구 양화로 19, 홀트3층",
    "tel": "02-924-2706",
    "time": "월~금 10:00~18:00, 일 13:00~17:00",
    "lang": "몽골어, 베트남어, 영어, 중국어, 태국어, 필리핀어",
    "detail": "쉼터┃노동상담┃한국어",
    "lat": 37.54913864,
    "lng": 126.9112479,
    "law": 0,
    "medical": 0,
    "consulting": 1,
    "edu": 0
  },
  {
    "index": 40,
    "name": "마포구다문화가족지원센터",
    "sigungu": "마포구",
    "type": "일반상담",
    "addr": "마포구 양화로 19, 홀트3층",
    "tel": "02-3142-5027",
    "time": "월~금 09:00~18:00",
    "lang": "베트남어",
    "detail": "상담┃한국어┃교육문화┃아동가족┃직업교육┃통번역",
    "lat": 37.54913864,
    "lng": 126.9112479,
    "law": 0,
    "medical": 0,
    "consulting": 1,
    "edu": 0
  },
  {
    "index": 41,
    "name": "연남글로벌빌리지센터",
    "sigungu": "마포구",
    "type": "일반상담",
    "addr": "마포구 동교로 219 수성빌딩 3층",
    "tel": "02-6406-8151",
    "time": "월~금 09:00~18:00",
    "lang": "영어, 중국어",
    "detail": "상담┃한국어┃교육문화",
    "lat": 37.55967089,
    "lng": 126.9235448,
    "law": 0,
    "medical": 0,
    "consulting": 1,
    "edu": 0
  },
  {
    "index": 42,
    "name": "서대문구다문화가족지원센터",
    "sigungu": "서대문구",
    "type": "일반상담",
    "addr": "서대문구 증가로 244",
    "tel": "02-375-7530",
    "time": "월~금 09:00~18:00",
    "lang": "베트남어",
    "detail": "상담┃한국어┃교육문화┃아동가족┃직업교육┃통번역",
    "lat": 37.58299206,
    "lng": 126.9128788,
    "law": 0,
    "medical": 0,
    "consulting": 1,
    "edu": 0
  },
  {
    "index": 43,
    "name": "서초구다문화가족지원센터",
    "sigungu": "서초구",
    "type": "일반상담",
    "addr": "서초구 강남대로 201 서초문화예술회관 2층",
    "tel": "02-576-2852",
    "time": "월~금 09:00~18:00",
    "lang": "",
    "detail": "상담┃한국어┃교육문화┃아동가족",
    "lat": 37.4818291,
    "lng": 127.0359583,
    "law": 0,
    "medical": 0,
    "consulting": 1,
    "edu": 0
  },
  {
    "index": 44,
    "name": "서래글로벌빌리지센터",
    "sigungu": "서초구",
    "type": "일반상담",
    "addr": "서초구 서래로 28 전빌딩",
    "tel": "02-2155-8949",
    "time": "월~금 09:00~18:00",
    "lang": "영어, 프랑스어",
    "detail": "상담┃한국어┃교육문화",
    "lat": 37.49744723,
    "lng": 126.9984982,
    "law": 0,
    "medical": 0,
    "consulting": 1,
    "edu": 0
  },
  {
    "index": 45,
    "name": "성동구다문화가족지원센터",
    "sigungu": "성동구",
    "type": "일반상담",
    "addr": "성동구 무학로 6길 9",
    "tel": "02-3395-9445",
    "time": "월~금 09:00~18:00",
    "lang": "베트남어",
    "detail": "상담┃한국어┃교육문화┃아동가족┃직업교육┃통번역",
    "lat": 37.56548315,
    "lng": 127.0311268,
    "law": 0,
    "medical": 0,
    "consulting": 1,
    "edu": 0
  },
  {
    "index": 46,
    "name": "성동외국인근로자센터",
    "sigungu": "성동구",
    "type": "일반상담",
    "addr": "성동구 무학로 6길 47-1",
    "tel": "02-2282-7974",
    "time": "화~금, 일 09:30~18:30",
    "lang": "몽골어, 베트남어, 영어, 중국어",
    "detail": "상담┃한국어┃교육문화┃아동가족┃의료",
    "lat": 37.56491248,
    "lng": 127.0355273,
    "law": 0,
    "medical": 0,
    "consulting": 1,
    "edu": 0
  },
  {
    "index": 47,
    "name": "성북구다문화가족지원센터",
    "sigungu": "성북구",
    "type": "일반상담",
    "addr": "성북구 안암로 145 고려대학교 라이시움 102호",
    "tel": "02-3290-1660",
    "time": "월~금 09:00~18:00",
    "lang": "베트남어, 캄보디아어",
    "detail": "상담┃한국어┃교육문화┃아동가족┃직업교육┃통번역",
    "lat": 37.58870342,
    "lng": 127.0316981,
    "law": 0,
    "medical": 0,
    "consulting": 1,
    "edu": 0
  },
  {
    "index": 48,
    "name": "중랑구다문화가족지원센터",
    "sigungu": "성북구",
    "type": "일반상담",
    "addr": "성북구 안암로 145 고려대학교 라이시움 102호",
    "tel": "02-435-4149",
    "time": "월~금 09:00~18:00",
    "lang": "베트남어",
    "detail": "상담┃한국어┃교육문화┃아동가족┃직업교육┃통번역",
    "lat": 37.58870342,
    "lng": 127.0316981,
    "law": 0,
    "medical": 0,
    "consulting": 1,
    "edu": 0
  },
  {
    "index": 49,
    "name": "성북외국인근로자센터",
    "sigungu": "성북구",
    "type": "일반상담",
    "addr": "성북구 오패산로 16길 23",
    "tel": "02-911-2884",
    "time": "월~일 09:00~18:00",
    "lang": "몽골어, 베트남어, 영어, 중국어, 필리핀어",
    "detail": "상담┃한국어┃직업교육┃교육문화┃의료",
    "lat": 37.60890914,
    "lng": 127.0375144,
    "law": 0,
    "medical": 0,
    "consulting": 1,
    "edu": 0
  },
  {
    "index": 50,
    "name": "성북외국인근로자센터",
    "sigungu": "성북구",
    "type": "일반상담",
    "addr": "성북구 오패산로 16길 23",
    "tel": "02-911-2884",
    "time": "월~일 09:00~18:00",
    "lang": "몽골어, 베트남어, 영어, 중국어, 필리핀어",
    "detail": "상담┃한국어┃직업교육┃교육문화┃의료",
    "lat": 37.60890914,
    "lng": 127.0375144,
    "law": 0,
    "medical": 0,
    "consulting": 1,
    "edu": 0
  },
  {
    "index": 51,
    "name": "성북글로벌빌리지센터",
    "sigungu": "성북구",
    "type": "일반상담",
    "addr": "성북구 성북로 134 성북구립미술관",
    "tel": "02-2241-6381",
    "time": "월~금 09:00~18:00",
    "lang": "영어, 중국어",
    "detail": "상담┃한국어┃교육문화",
    "lat": 37.59483792,
    "lng": 126.9948864,
    "law": 0,
    "medical": 0,
    "consulting": 1,
    "edu": 0
  },
  {
    "index": 52,
    "name": "사단법인 푸른사람들",
    "sigungu": "성북구",
    "type": "일반상담",
    "addr": "성북구 창경궁로 328 하나은행 건물 3층",
    "tel": "02-964-7530",
    "time": "월, 수 10:30~12:30, 일 13:00~15:00",
    "lang": "몽골어, 베트남어, 인니어, 필리핀어",
    "detail": "상담┃한국어┃교육문화┃아동가족┃직업교육┃통번역",
    "lat": 37.58808764,
    "lng": 127.006037,
    "law": 0,
    "medical": 0,
    "consulting": 1,
    "edu": 0
  },
  {
    "index": 53,
    "name": "송파구다문화가족지원센터",
    "sigungu": "송파구",
    "type": "일반상담",
    "addr": "송파구 마천로 41길 12",
    "tel": "02-403-3844",
    "time": "월~금 09:00~18:00",
    "lang": "베트남어, 중국어",
    "detail": "상담┃한국어┃교육문화┃아동가족┃직업교육┃통번역",
    "lat": 37.49700767,
    "lng": 127.1486933,
    "law": 0,
    "medical": 0,
    "consulting": 1,
    "edu": 0
  },
  {
    "index": 54,
    "name": "양천구다문화가족지원센터",
    "sigungu": "양천구",
    "type": "일반상담",
    "addr": "양천구 남부순환로88길 5-7 지층",
    "tel": "02-2699-6900",
    "time": "월~금 09:00~18:00",
    "lang": "베트남어",
    "detail": "상담┃한국어┃교육문화┃아동가족┃직업교육┃통번역",
    "lat": 37.51143264,
    "lng": 126.8415147,
    "law": 0,
    "medical": 0,
    "consulting": 1,
    "edu": 0
  },
  {
    "index": 55,
    "name": "양천외국인근로자센터",
    "sigungu": "양천구",
    "type": "일반상담",
    "addr": "양천구 목동동로 12길 59",
    "tel": "02-2643-0808",
    "time": "월~일 09:00~18:00",
    "lang": "미얀마어, 베트남어, 영어, 중국어, 필리핀어",
    "detail": "상담┃한국어┃직업교육┃교육문화┃아동가족┃의료",
    "lat": 37.52349515,
    "lng": 126.8778159,
    "law": 0,
    "medical": 0,
    "consulting": 1,
    "edu": 0
  },
  {
    "index": 56,
    "name": "영등포구다문화가족지원센터",
    "sigungu": "영등포구",
    "type": "일반상담",
    "addr": "영등포구 영등포로 84길 24-5 4층 신길종합사회복지관",
    "tel": "02-846-5432",
    "time": "월~금 09:00~18:00",
    "lang": "러시아어, 몽골어, 베트남어, 중국어, 태국어",
    "detail": "상담┃한국어┃교육문화┃아동가족┃직업교육┃통번역",
    "lat": 37.51117046,
    "lng": 126.9214408,
    "law": 0,
    "medical": 0,
    "consulting": 1,
    "edu": 0
  },
  {
    "index": 57,
    "name": "서남권글로벌센터",
    "sigungu": "영등포구",
    "type": "일반상담",
    "addr": "영등포구 도신로 40",
    "tel": "02-2229-4900",
    "time": "화~금, 일 09:00~18:00",
    "lang": "네팔어, 몽골어, 베트남어, 영어, 우즈벡어,중국어, 태국어, 파키스탄어, 필리핀어",
    "detail": "상담┃한국어┃의료┃교육문화",
    "lat": 37.50474769,
    "lng": 126.8974122,
    "law": 0,
    "medical": 0,
    "consulting": 1,
    "edu": 0
  },
  {
    "index": 58,
    "name": "용산구다문화가족지원센터",
    "sigungu": "용산구",
    "type": "일반상담",
    "addr": "용산구 이태원로 224-19 한남공영주차장 3층",
    "tel": "02-792-9174",
    "time": "월~금 09:00~18:00",
    "lang": "베트남어",
    "detail": "상담┃한국어┃교육문화┃아동가족┃직업교육┃통번역",
    "lat": 37.53485691,
    "lng": 127.000267,
    "law": 0,
    "medical": 0,
    "consulting": 1,
    "edu": 0
  },
  {
    "index": 59,
    "name": "이촌글로벌빌리지센터",
    "sigungu": "용산구",
    "type": "일반상담",
    "addr": "용산구 이촌로 224 한강쇼핑센터 304호",
    "tel": "02-796-2018",
    "time": "월~금 09:00~18:00",
    "lang": "영어, 일본어",
    "detail": "상담┃한국어┃교육문화",
    "lat": 37.52014561,
    "lng": 126.9718784,
    "law": 0,
    "medical": 0,
    "consulting": 1,
    "edu": 0
  },
  {
    "index": 60,
    "name": "이태원글로벌빌리지센터",
    "sigungu": "용산구",
    "type": "일반상담",
    "addr": "용산구 이태원로 211 한남빌딩 5층",
    "tel": "02-2199-8883",
    "time": "월~금 09:00~18:00",
    "lang": "영어",
    "detail": "상담┃한국어┃교육문화",
    "lat": 37.53498662,
    "lng": 126.9972755,
    "law": 0,
    "medical": 0,
    "consulting": 1,
    "edu": 0
  },
  {
    "index": 61,
    "name": "외국인이주노동자인권을위한모임",
    "sigungu": "용산구",
    "type": "일반상담",
    "addr": "용산구 한강대로80길 11-22 무덕관, 2층",
    "tel": "02-749-6052",
    "time": "월~금 10:00~18:00/일 13:00~18:00",
    "lang": "몽골어",
    "detail": "상담┃한국어┃문화활동┃공동체지원",
    "lat": 37.54353237,
    "lng": 126.9735035,
    "law": 0,
    "medical": 0,
    "consulting": 1,
    "edu": 0
  },
  {
    "index": 62,
    "name": "서울글로벌창업센터",
    "sigungu": "용산구",
    "type": "일반상담",
    "addr": "용산구 한강로3가 1-1 (나진전자월드 14동 3 & 4층)",
    "tel": "02-718-1170",
    "time": "월~일 09:00~18:00",
    "lang": "영어",
    "detail": "창업보육",
    "lat": 37.53362228,
    "lng": 126.9634195,
    "law": 0,
    "medical": 0,
    "consulting": 1,
    "edu": 0
  },
  {
    "index": 63,
    "name": "은평구다문화가족지원센터",
    "sigungu": "은평구",
    "type": "일반상담",
    "addr": "은평구 서오릉로 174 김동규빌딩 3층",
    "tel": "02-376-3731",
    "time": "월~금 09:00~18:00",
    "lang": "베트남어",
    "detail": "상담┃한국어┃교육문화┃아동가족┃직업교육┃통번역",
    "lat": 37.61301412,
    "lng": 126.9143026,
    "law": 0,
    "medical": 0,
    "consulting": 1,
    "edu": 0
  },
  {
    "index": 64,
    "name": "은평외국인근로자센터",
    "sigungu": "은평구",
    "type": "일반상담",
    "addr": "은평구 은평로21길 14-26",
    "tel": "02-359-3410~1",
    "time": "화~토 09:00~18:00, 일 14:00~18:00",
    "lang": "미얀마어, 몽골어, 베트남어, 중국어, 영어",
    "detail": "상담┃한국어┃교육문화┃의료",
    "lat": 37.60271099,
    "lng": 126.9317813,
    "law": 0,
    "medical": 0,
    "consulting": 1,
    "edu": 0
  },
  {
    "index": 65,
    "name": "난민인권센터",
    "sigungu": "은평구",
    "type": "일반상담",
    "addr": "은평구 통일로 684 서울혁신파크 1동 4층 401 A호",
    "tel": "02-712-0620",
    "time": "화, 수, 목 10:00~17:00",
    "lang": "영어",
    "detail": "난민지원┃심리상담┃생활지원┃아동가족지원",
    "lat": 37.60940534,
    "lng": 126.9349554,
    "law": 0,
    "medical": 0,
    "consulting": 1,
    "edu": 0
  },
  {
    "index": 66,
    "name": "이주노동희망센터",
    "sigungu": "은평구",
    "type": "일반상담",
    "addr": "은평구 통일로 684 18동 2층",
    "tel": "070-4632-5890",
    "time": "월~금 10:00~18:00",
    "lang": "네팔어, 방글라데시어, 영어",
    "detail": "이주아동 심리상담┃해외학교 건립",
    "lat": 37.60940534,
    "lng": 126.9349554,
    "law": 0,
    "medical": 0,
    "consulting": 1,
    "edu": 0
  },
  {
    "index": 67,
    "name": "종로구다문화가족지원센터",
    "sigungu": "종로구",
    "type": "일반상담",
    "addr": "종로구 창신길 124 동부여성문화센터 2층",
    "tel": "02-764-3521",
    "time": "월~금 09:00~18:00",
    "lang": "베트남어",
    "detail": "상담┃한국어┃교육문화┃아동가족┃직업교육┃통번역",
    "lat": 37.57695471,
    "lng": 127.0098716,
    "law": 0,
    "medical": 0,
    "consulting": 1,
    "edu": 0
  },
  {
    "index": 68,
    "name": "서울글로벌센터(생활)",
    "sigungu": "종로구",
    "type": "일반상담",
    "addr": "종로구 종로38 서울글로벌센터빌딩 5층",
    "tel": "02-2075-4180",
    "time": "월~금 09:00~18:00",
    "lang": "러시아어, 몽골어, 베트남어, 영어, 우즈벡어,일본어, 중국어, 태국어, 필리핀어, 아랍어, 인니어",
    "detail": "상담┃한국어┃교육문화",
    "lat": 37.56982139,
    "lng": 126.9814813,
    "law": 0,
    "medical": 0,
    "consulting": 1,
    "edu": 0
  },
  {
    "index": 69,
    "name": "서울글로벌센터(비즈니스)",
    "sigungu": "종로구",
    "type": "일반상담",
    "addr": "종로구 종로38 서울글로벌센터빌딩 6층",
    "tel": "02-2075-4120",
    "time": "월~일 09:00~18:00",
    "lang": "영어, 일본어, 중국어",
    "detail": "비즈니스상담┃창업교육┃창업보육",
    "lat": 37.56982139,
    "lng": 126.9814813,
    "law": 0,
    "medical": 0,
    "consulting": 1,
    "edu": 0
  },
  {
    "index": 70,
    "name": "서울이주여성상담센터",
    "sigungu": "종로구",
    "type": "일반상담",
    "addr": "종로구 종로38 서울글로벌센터빌딩 6층",
    "tel": "02-733-0120",
    "time": "월~금 09:00~18:00",
    "lang": "몽골어, 베트남어, 영어, 중국어, 필리핀어",
    "detail": "쉼터┃상담",
    "lat": 37.56982139,
    "lng": 126.9814813,
    "law": 0,
    "medical": 0,
    "consulting": 1,
    "edu": 0
  },
  {
    "index": 71,
    "name": "서울시교육청 다문화교육지원센터",
    "sigungu": "종로구",
    "type": "일반상담",
    "addr": "종로구 송월길 48 서울시교육청 별관 4층",
    "tel": "02-3999-058",
    "time": "월~금 09:00~18:00",
    "lang": "한국어",
    "detail": "상담┃교육문화",
    "lat": 37.57026528,
    "lng": 126.9675671,
    "law": 0,
    "medical": 0,
    "consulting": 1,
    "edu": 0
  },
  {
    "index": 72,
    "name": "서울외국인노동자센터",
    "sigungu": "종로구",
    "type": "일반상담",
    "addr": "종로구 창신8길 13",
    "tel": "02-3672-9472",
    "time": "화~금 9:00~17:00, 일 10:00~18:00",
    "lang": "한국어",
    "detail": "쉼터┃상담┃문화체험",
    "lat": 37.57733669,
    "lng": 127.0103471,
    "law": 0,
    "medical": 0,
    "consulting": 1,
    "edu": 0
  },
  {
    "index": 73,
    "name": "이주배경청소년지원재단",
    "sigungu": "종로구",
    "type": "일반상담",
    "addr": "종로구 자하문로 24길 20 이음빌딩 2층",
    "tel": "02-733-7587",
    "time": "월~금 09:00~18:00",
    "lang": "영어, 중국어",
    "detail": "중도입국청소년 지원┃한국어┃문화활동",
    "lat": 37.58304588,
    "lng": 126.9709943,
    "law": 0,
    "medical": 0,
    "consulting": 1,
    "edu": 0
  },
  {
    "index": 74,
    "name": "한국이주여성인권센터",
    "sigungu": "종로구",
    "type": "일반상담",
    "addr": "종로구 종로65길 16 SSPM 빌딩 4층",
    "tel": "02-3672-8988",
    "time": "월~금 09:00~18:00",
    "lang": "몽골어, 베트남어, 영어, 중국어, 캄보디아어, 필리핀어",
    "detail": "서울이주여성상담센터 및 여성쉼터운영",
    "lat": 37.57512262,
    "lng": 127.0199192,
    "law": 0,
    "medical": 0,
    "consulting": 1,
    "edu": 0
  },
  {
    "index": 75,
    "name": "중구다문화가족지원센터",
    "sigungu": "중구",
    "type": "일반상담",
    "addr": "중구 퇴계로 460 10층",
    "tel": "02-2254-3670",
    "time": "월~금 09:00~18:00",
    "lang": "몽골어",
    "detail": "상담┃한국어┃교육문화┃아동가족┃직업교육┃통번역",
    "lat": 37.56509222,
    "lng": 127.022787,
    "law": 0,
    "medical": 0,
    "consulting": 1,
    "edu": 0
  },
  {
    "index": 76,
    "name": "강남구다문화가족지원센터",
    "sigungu": "강남구",
    "type": "한국어 교육",
    "addr": "강남구 개포로 617-8 4층",
    "tel": "02-3414-3346",
    "time": "월~금 09:00~18:00",
    "lang": "중국어",
    "detail": "상담┃한국어┃교육문화┃아동가족┃직업교육┃통번역",
    "lat": 37.49405188,
    "lng": 127.0777588,
    "law": 0,
    "medical": 0,
    "consulting": 0,
    "edu": 1
  },
  {
    "index": 77,
    "name": "역삼글로벌빌리지센터",
    "sigungu": "강남구",
    "type": "한국어 교육",
    "addr": "강남구 역삼로 7길 16 역삼1문화센터",
    "tel": "02-3453-9038",
    "time": "월~금 09:00~18:00",
    "lang": "네팔어, 영어",
    "detail": "상담┃한국어┃교육문화",
    "lat": 37.49537384,
    "lng": 127.0332825,
    "law": 0,
    "medical": 0,
    "consulting": 0,
    "edu": 1
  },
  {
    "index": 78,
    "name": "강동외국인근로자센터",
    "sigungu": "강동구",
    "type": "한국어 교육",
    "addr": "강동구 성안로13길 56",
    "tel": "02-478-0126",
    "time": "월~일 09:00~18:00",
    "lang": "네팔어, 베트남어, 영어, 중국어, 필리핀어",
    "detail": "상담┃한국어┃직업교육┃교육문화┃아동가족┃의료",
    "lat": 37.53220561,
    "lng": 127.1293486,
    "law": 0,
    "medical": 0,
    "consulting": 0,
    "edu": 1
  },
  {
    "index": 79,
    "name": "강동구다문화가족지원센터",
    "sigungu": "강동구",
    "type": "한국어 교육",
    "addr": "강동구 양재대로 138길 41 2층",
    "tel": "02-473-4986",
    "time": "월~금 09:00~18:00",
    "lang": "베트남어",
    "detail": "상담┃한국어┃교육문화┃아동가족┃직업교육┃통번역",
    "lat": 37.549759,
    "lng": 127.1462315,
    "law": 0,
    "medical": 0,
    "consulting": 0,
    "edu": 1
  },
  {
    "index": 80,
    "name": "강북구다문화가족지원센터",
    "sigungu": "강북구",
    "type": "한국어 교육",
    "addr": "강북구 인수봉로 66길 9 강북구육아종합지원센터 4층",
    "tel": "02-945-7381",
    "time": "월~금 09:00~18:00",
    "lang": "베트남어",
    "detail": "상담┃한국어┃교육문화┃아동가족┃직업교육┃통번역",
    "lat": 37.64047781,
    "lng": 127.0125765,
    "law": 0,
    "medical": 0,
    "consulting": 0,
    "edu": 1
  },
  {
    "index": 81,
    "name": "원불교서울외국인센터",
    "sigungu": "강서구",
    "type": "한국어 교육",
    "addr": "강서구 가로공원로 84길 59",
    "tel": "02-2699-9943",
    "time": "수~일 10:00~18:00",
    "lang": "영어",
    "detail": "한국어",
    "lat": 37.53507517,
    "lng": 126.8417,
    "law": 0,
    "medical": 0,
    "consulting": 0,
    "edu": 1
  },
  {
    "index": 82,
    "name": "강서구다문화가족지원센터",
    "sigungu": "강서구",
    "type": "한국어 교육",
    "addr": "강서구 강서로 5길 50 곰달래문화복지센터 4층",
    "tel": "02-2606-2037",
    "time": "월~금 09:00~18:00",
    "lang": "베트남어",
    "detail": "상담┃한국어┃교육문화┃아동가족┃직업교육┃통번역",
    "lat": 37.52905871,
    "lng": 126.848899,
    "law": 0,
    "medical": 0,
    "consulting": 0,
    "edu": 1
  },
  {
    "index": 83,
    "name": "관악구다문화가족지원센터",
    "sigungu": "관악구",
    "type": "한국어 교육",
    "addr": "관악구 신림로3길 35, 남파 김남준기념관 3층",
    "tel": "02-883-9383",
    "time": "월~금 09:00~18:00",
    "lang": "베트남어",
    "detail": "상담┃한국어┃교육문화┃아동가족┃직업교육┃통번역",
    "lat": 37.46759657,
    "lng": 126.9448723,
    "law": 0,
    "medical": 0,
    "consulting": 0,
    "edu": 1
  },
  {
    "index": 84,
    "name": "광진구다문화가족지원센터",
    "sigungu": "광진구",
    "type": "한국어 교육",
    "addr": "광진구 아차산로 24길 17(자양동) 5층",
    "tel": "02-458-0666",
    "time": "월~금 09:00~18:00",
    "lang": "중국어",
    "detail": "상담┃한국어┃교육문화┃아동가족┃직업교육┃통번역",
    "lat": 37.54026298,
    "lng": 127.0651113,
    "law": 0,
    "medical": 0,
    "consulting": 0,
    "edu": 1
  },
  {
    "index": 85,
    "name": "구로구다문화가족지원센터",
    "sigungu": "구로구",
    "type": "한국어 교육",
    "addr": "구로구 디지털로 32가길 50",
    "tel": "02-869-0317",
    "time": "월~금 09:00~18:00",
    "lang": "베트남어, 중국어, 캄보디아어",
    "detail": "상담┃한국어┃교육문화┃아동가족┃직업교육┃통번역",
    "lat": 37.48137587,
    "lng": 126.8977517,
    "law": 0,
    "medical": 0,
    "consulting": 0,
    "edu": 1
  },
  {
    "index": 86,
    "name": "한국외국인력지원센터",
    "sigungu": "구로구",
    "type": "한국어 교육",
    "addr": "구로구 남부순환로 1291 B동 1, 3, 4층",
    "tel": "1644-0644",
    "time": "월~금, 일 09:00~18:00",
    "lang": "미얀마어, 몽골어, 베트남어, 스리랑카어,우즈벡어, 중국어, 캄보디아어, 태국어, 파키스탄어",
    "detail": "상담┃한국어┃직업교육┃교육문화",
    "lat": 37.47888968,
    "lng": 126.8943272,
    "law": 0,
    "medical": 0,
    "consulting": 0,
    "edu": 1
  },
  {
    "index": 87,
    "name": "금천구다문화가족지원센터",
    "sigungu": "금천구",
    "type": "한국어 교육",
    "addr": "금천구 금하로 11길 40",
    "tel": "02-803-7743",
    "time": "월~금 09:00~18:00",
    "lang": "베트남어",
    "detail": "상담┃한국어┃교육문화┃아동가족┃직업교육┃통번역",
    "lat": 37.45543569,
    "lng": 126.9041027,
    "law": 0,
    "medical": 0,
    "consulting": 0,
    "edu": 1
  },
  {
    "index": 88,
    "name": "금천글로벌빌리지센터",
    "sigungu": "금천구",
    "type": "한국어 교육",
    "addr": "금천구 가산로 116 3층",
    "tel": "02-2627-2884",
    "time": "월~금 09:00~18:00",
    "lang": "영어, 중국어",
    "detail": "상담┃한국어┃교육문화┃커뮤니티입주시설",
    "lat": 37.4761063,
    "lng": 126.8931463,
    "law": 0,
    "medical": 0,
    "consulting": 0,
    "edu": 1
  },
  {
    "index": 89,
    "name": "금천외국인근로자센터",
    "sigungu": "금천구",
    "type": "한국어 교육",
    "addr": "금천구 가산로 129",
    "tel": "02-868-5208",
    "time": "월~금 09:00~21:00, 토 09:00~18:00",
    "lang": "베트남어, 영어, 중국어, 필리핀어",
    "detail": "상담┃한국어┃직업교육┃교육문화┃아동가족┃의료",
    "lat": 37.47689074,
    "lng": 126.891784,
    "law": 0,
    "medical": 0,
    "consulting": 0,
    "edu": 1
  },
  {
    "index": 90,
    "name": "노원구다문화가족지원센터",
    "sigungu": "노원구",
    "type": "한국어 교육",
    "addr": "노원구 동일로 173가길 94 가온빌딩 3층",
    "tel": "02-979-3502",
    "time": "월~금 09:00~18:00",
    "lang": "베트남어",
    "detail": "상담┃한국어┃교육문화┃아동가족┃직업교육┃통번역",
    "lat": 37.62247244,
    "lng": 127.0726409,
    "law": 0,
    "medical": 0,
    "consulting": 0,
    "edu": 1
  },
  {
    "index": 91,
    "name": "도봉구다문화가족지원센터",
    "sigungu": "도봉구",
    "type": "한국어 교육",
    "addr": "도봉구 도봉로 552, 도봉구민회관 2층",
    "tel": "02-990-5432",
    "time": "월~금 09:00~18:00",
    "lang": "베트남어",
    "detail": "상담┃한국어┃교육문화┃아동가족┃직업교육┃통번역",
    "lat": 37.65416709,
    "lng": 127.0386839,
    "law": 0,
    "medical": 0,
    "consulting": 0,
    "edu": 1
  },
  {
    "index": 92,
    "name": "동대문구다문화가족지원센터",
    "sigungu": "동대문구",
    "type": "한국어 교육",
    "addr": "동대문구 청계천로 521, 다사랑행복센터 7층",
    "tel": "02-957-1073",
    "time": "월~금 09:00~18:00",
    "lang": "베트남어, 일본어, 중국어, 필리핀어",
    "detail": "상담┃한국어┃교육문화┃아동가족┃직업교육┃통번역",
    "lat": 37.57181454,
    "lng": 127.0340455,
    "law": 0,
    "medical": 0,
    "consulting": 0,
    "edu": 1
  },
  {
    "index": 93,
    "name": "동작구다문화가족지원센터",
    "sigungu": "동작구",
    "type": "한국어 교육",
    "addr": "동작구 동작대로 29길 63-26 3층",
    "tel": "02-599-3260",
    "time": "월~금 09:00~18:00",
    "lang": "베트남어, 중국어",
    "detail": "상담┃한국어┃교육문화┃아동가족┃직업교육┃통번역",
    "lat": 37.48837377,
    "lng": 126.9775891,
    "law": 0,
    "medical": 0,
    "consulting": 0,
    "edu": 1
  },
  {
    "index": 94,
    "name": "마포구다문화가족지원센터",
    "sigungu": "마포구",
    "type": "한국어 교육",
    "addr": "마포구 양화로 19, 홀트3층",
    "tel": "02-3142-5027",
    "time": "월~금 09:00~18:00",
    "lang": "베트남어",
    "detail": "상담┃한국어┃교육문화┃아동가족┃직업교육┃통번역",
    "lat": 37.54913864,
    "lng": 126.9112479,
    "law": 0,
    "medical": 0,
    "consulting": 0,
    "edu": 1
  },
  {
    "index": 95,
    "name": "연남글로벌빌리지센터",
    "sigungu": "마포구",
    "type": "한국어 교육",
    "addr": "마포구 동교로 219 수성빌딩 3층",
    "tel": "02-6406-8151",
    "time": "월~금 09:00~18:00",
    "lang": "영어, 중국어",
    "detail": "상담┃한국어┃교육문화",
    "lat": 37.55967089,
    "lng": 126.9235448,
    "law": 0,
    "medical": 0,
    "consulting": 0,
    "edu": 1
  },
  {
    "index": 96,
    "name": "서대문구다문화가족지원센터",
    "sigungu": "서대문구",
    "type": "한국어 교육",
    "addr": "서대문구 증가로 244",
    "tel": "02-375-7530",
    "time": "월~금 09:00~18:00",
    "lang": "베트남어",
    "detail": "상담┃한국어┃교육문화┃아동가족┃직업교육┃통번역",
    "lat": 37.58299206,
    "lng": 126.9128788,
    "law": 0,
    "medical": 0,
    "consulting": 0,
    "edu": 1
  },
  {
    "index": 97,
    "name": "서초구다문화가족지원센터",
    "sigungu": "서초구",
    "type": "한국어 교육",
    "addr": "서초구 강남대로 201 서초문화예술회관 2층",
    "tel": "02-576-2852",
    "time": "월~금 09:00~18:00",
    "lang": "",
    "detail": "상담┃한국어┃교육문화┃아동가족",
    "lat": 37.4818291,
    "lng": 127.0359583,
    "law": 0,
    "medical": 0,
    "consulting": 0,
    "edu": 1
  },
  {
    "index": 98,
    "name": "서래글로벌빌리지센터",
    "sigungu": "서초구",
    "type": "한국어 교육",
    "addr": "서초구 서래로 28 전빌딩",
    "tel": "02-2155-8949",
    "time": "월~금 09:00~18:00",
    "lang": "영어, 프랑스어",
    "detail": "상담┃한국어┃교육문화",
    "lat": 37.49744723,
    "lng": 126.9984982,
    "law": 0,
    "medical": 0,
    "consulting": 0,
    "edu": 1
  },
  {
    "index": 99,
    "name": "성동구다문화가족지원센터",
    "sigungu": "성동구",
    "type": "한국어 교육",
    "addr": "성동구 무학로 6길 9",
    "tel": "02-3395-9445",
    "time": "월~금 09:00~18:00",
    "lang": "베트남어",
    "detail": "상담┃한국어┃교육문화┃아동가족┃직업교육┃통번역",
    "lat": 37.56548315,
    "lng": 127.0311268,
    "law": 0,
    "medical": 0,
    "consulting": 0,
    "edu": 1
  },
  {
    "index": 100,
    "name": "성동외국인근로자센터",
    "sigungu": "성동구",
    "type": "한국어 교육",
    "addr": "성동구 무학로 6길 47-1",
    "tel": "02-2282-7974",
    "time": "화~금, 일 09:30~18:30",
    "lang": "몽골어, 베트남어, 영어, 중국어",
    "detail": "상담┃한국어┃교육문화┃아동가족┃의료",
    "lat": 37.56491248,
    "lng": 127.0355273,
    "law": 0,
    "medical": 0,
    "consulting": 0,
    "edu": 1
  },
  {
    "index": 101,
    "name": "성북구다문화가족지원센터",
    "sigungu": "성북구",
    "type": "한국어 교육",
    "addr": "성북구 안암로 145 고려대학교 라이시움 102호",
    "tel": "02-3290-1660",
    "time": "월~금 09:00~18:00",
    "lang": "베트남어, 캄보디아어",
    "detail": "상담┃한국어┃교육문화┃아동가족┃직업교육┃통번역",
    "lat": 37.58870342,
    "lng": 127.0316981,
    "law": 0,
    "medical": 0,
    "consulting": 0,
    "edu": 1
  },
  {
    "index": 102,
    "name": "중랑구다문화가족지원센터",
    "sigungu": "성북구",
    "type": "한국어 교육",
    "addr": "성북구 안암로 145 고려대학교 라이시움 102호",
    "tel": "02-435-4149",
    "time": "월~금 09:00~18:00",
    "lang": "베트남어",
    "detail": "상담┃한국어┃교육문화┃아동가족┃직업교육┃통번역",
    "lat": 37.58870342,
    "lng": 127.0316981,
    "law": 0,
    "medical": 0,
    "consulting": 0,
    "edu": 1
  },
  {
    "index": 103,
    "name": "성북외국인근로자센터",
    "sigungu": "성북구",
    "type": "한국어 교육",
    "addr": "성북구 오패산로 16길 23",
    "tel": "02-911-2884",
    "time": "월~일 09:00~18:00",
    "lang": "몽골어, 베트남어, 영어, 중국어, 필리핀어",
    "detail": "상담┃한국어┃직업교육┃교육문화┃의료",
    "lat": 37.60890914,
    "lng": 127.0375144,
    "law": 0,
    "medical": 0,
    "consulting": 0,
    "edu": 1
  },
  {
    "index": 104,
    "name": "성북글로벌빌리지센터",
    "sigungu": "성북구",
    "type": "한국어 교육",
    "addr": "성북구 성북로 134 성북구립미술관",
    "tel": "02-2241-6381",
    "time": "월~금 09:00~18:00",
    "lang": "영어, 중국어",
    "detail": "상담┃한국어┃교육문화",
    "lat": 37.59483792,
    "lng": 126.9948864,
    "law": 0,
    "medical": 0,
    "consulting": 0,
    "edu": 1
  },
  {
    "index": 105,
    "name": "사단법인 푸른사람들",
    "sigungu": "성북구",
    "type": "한국어 교육",
    "addr": "성북구 창경궁로 328 하나은행 건물 3층",
    "tel": "02-964-7530",
    "time": "월, 수 10:30~12:30, 일 13:00~15:00",
    "lang": "몽골어, 베트남어, 인니어, 필리핀어",
    "detail": "상담┃한국어┃교육문화┃아동가족┃직업교육┃통번역",
    "lat": 37.58808764,
    "lng": 127.006037,
    "law": 0,
    "medical": 0,
    "consulting": 0,
    "edu": 1
  },
  {
    "index": 106,
    "name": "하나다문화센터 다린",
    "sigungu": "성북구",
    "type": "한국어 교육",
    "addr": "성북구 창경궁로 328 하나은행 건물 3층",
    "tel": "02-743-6744",
    "time": "화~금 09:00~18:00, 토 09:00~16:00, 일 09:00~14:00",
    "lang": "",
    "detail": "한국어┃문화교류",
    "lat": 37.58808764,
    "lng": 127.006037,
    "law": 0,
    "medical": 0,
    "consulting": 0,
    "edu": 1
  },
  {
    "index": 107,
    "name": "송파구다문화가족지원센터",
    "sigungu": "송파구",
    "type": "한국어 교육",
    "addr": "송파구 마천로 41길 12",
    "tel": "02-403-3844",
    "time": "월~금 09:00~18:00",
    "lang": "베트남어, 중국어",
    "detail": "상담┃한국어┃교육문화┃아동가족┃직업교육┃통번역",
    "lat": 37.49700767,
    "lng": 127.1486933,
    "law": 0,
    "medical": 0,
    "consulting": 0,
    "edu": 1
  },
  {
    "index": 108,
    "name": "양천구다문화가족지원센터",
    "sigungu": "양천구",
    "type": "한국어 교육",
    "addr": "양천구 남부순환로88길 5-7 지층",
    "tel": "02-2699-6900",
    "time": "월~금 09:00~18:00",
    "lang": "베트남어",
    "detail": "상담┃한국어┃교육문화┃아동가족┃직업교육┃통번역",
    "lat": 37.51143264,
    "lng": 126.8415147,
    "law": 0,
    "medical": 0,
    "consulting": 0,
    "edu": 1
  },
  {
    "index": 109,
    "name": "양천외국인근로자센터",
    "sigungu": "양천구",
    "type": "한국어 교육",
    "addr": "양천구 목동동로 12길 59",
    "tel": "02-2643-0808",
    "time": "월~일 09:00~18:00",
    "lang": "미얀마어, 베트남어, 영어, 중국어, 필리핀어",
    "detail": "상담┃한국어┃직업교육┃교육문화┃아동가족┃의료",
    "lat": 37.52349515,
    "lng": 126.8778159,
    "law": 0,
    "medical": 0,
    "consulting": 0,
    "edu": 1
  },
  {
    "index": 110,
    "name": "영등포구다문화가족지원센터",
    "sigungu": "영등포구",
    "type": "한국어 교육",
    "addr": "영등포구 영등포로 84길 24-5 4층 신길종합사회복지관",
    "tel": "02-846-5432",
    "time": "월~금 09:00~18:00",
    "lang": "러시아어, 몽골어, 베트남어, 중국어, 태국어",
    "detail": "상담┃한국어┃교육문화┃아동가족┃직업교육┃통번역",
    "lat": 37.51117046,
    "lng": 126.9214408,
    "law": 0,
    "medical": 0,
    "consulting": 0,
    "edu": 1
  },
  {
    "index": 111,
    "name": "서남권글로벌센터",
    "sigungu": "영등포구",
    "type": "한국어 교육",
    "addr": "영등포구 도신로 40",
    "tel": "02-2229-4900",
    "time": "화~금, 일 09:00~18:00",
    "lang": "네팔어, 몽골어, 베트남어, 영어, 우즈벡어,중국어, 태국어, 파키스탄어, 필리핀어",
    "detail": "상담┃한국어┃의료┃교육문화",
    "lat": 37.50474769,
    "lng": 126.8974122,
    "law": 0,
    "medical": 0,
    "consulting": 0,
    "edu": 1
  },
  {
    "index": 112,
    "name": "서울온드림교육센터",
    "sigungu": "영등포구",
    "type": "한국어 교육",
    "addr": "영등포구 도신로 40, 3층",
    "tel": "070-7712-719",
    "time": "월~금 09:00~18:00",
    "lang": "한국어",
    "detail": "중도입국청소년 지원┃한국어┃교육문화",
    "lat": 37.50474769,
    "lng": 126.8974122,
    "law": 0,
    "medical": 0,
    "consulting": 0,
    "edu": 1
  },
  {
    "index": 113,
    "name": "용산구다문화가족지원센터",
    "sigungu": "용산구",
    "type": "한국어 교육",
    "addr": "용산구 이태원로 224-19 한남공영주차장 3층",
    "tel": "02-792-9174",
    "time": "월~금 09:00~18:00",
    "lang": "베트남어",
    "detail": "상담┃한국어┃교육문화┃아동가족┃직업교육┃통번역",
    "lat": 37.53485691,
    "lng": 127.000267,
    "law": 0,
    "medical": 0,
    "consulting": 0,
    "edu": 1
  },
  {
    "index": 114,
    "name": "이촌글로벌빌리지센터",
    "sigungu": "용산구",
    "type": "한국어 교육",
    "addr": "용산구 이촌로 224 한강쇼핑센터 304호",
    "tel": "02-796-2018",
    "time": "월~금 09:00~18:00",
    "lang": "영어, 일본어",
    "detail": "상담┃한국어┃교육문화",
    "lat": 37.52014561,
    "lng": 126.9718784,
    "law": 0,
    "medical": 0,
    "consulting": 0,
    "edu": 1
  },
  {
    "index": 115,
    "name": "이태원글로벌빌리지센터",
    "sigungu": "용산구",
    "type": "한국어 교육",
    "addr": "용산구 이태원로 211 한남빌딩 5층",
    "tel": "02-2199-8883",
    "time": "월~금 09:00~18:00",
    "lang": "영어",
    "detail": "상담┃한국어┃교육문화",
    "lat": 37.53498662,
    "lng": 126.9972755,
    "law": 0,
    "medical": 0,
    "consulting": 0,
    "edu": 1
  },
  {
    "index": 116,
    "name": "외국인이주노동자인권을위한모임",
    "sigungu": "용산구",
    "type": "한국어 교육",
    "addr": "용산구 한강대로80길 11-22 무덕관, 2층",
    "tel": "02-749-6052",
    "time": "월~금 10:00~18:00/일 13:00~18:00",
    "lang": "몽골어",
    "detail": "상담┃한국어┃문화활동┃공동체지원",
    "lat": 37.54353237,
    "lng": 126.9735035,
    "law": 0,
    "medical": 0,
    "consulting": 0,
    "edu": 1
  },
  {
    "index": 117,
    "name": "은평구다문화가족지원센터",
    "sigungu": "은평구",
    "type": "한국어 교육",
    "addr": "은평구 서오릉로 174 김동규빌딩 3층",
    "tel": "02-376-3731",
    "time": "월~금 09:00~18:00",
    "lang": "베트남어",
    "detail": "상담┃한국어┃교육문화┃아동가족┃직업교육┃통번역",
    "lat": 37.61301412,
    "lng": 126.9143026,
    "law": 0,
    "medical": 0,
    "consulting": 0,
    "edu": 1
  },
  {
    "index": 118,
    "name": "은평외국인근로자센터",
    "sigungu": "은평구",
    "type": "한국어 교육",
    "addr": "은평구 은평로21길 14-26",
    "tel": "02-359-3410~1",
    "time": "화~토 09:00~18:00, 일 14:00~18:00",
    "lang": "미얀마어, 몽골어, 베트남어, 중국어, 영어",
    "detail": "상담┃한국어┃교육문화┃의료",
    "lat": 37.60271099,
    "lng": 126.9317813,
    "law": 0,
    "medical": 0,
    "consulting": 0,
    "edu": 1
  },
  {
    "index": 119,
    "name": "종로구다문화가족지원센터",
    "sigungu": "종로구",
    "type": "한국어 교육",
    "addr": "종로구 창신길 124 동부여성문화센터 2층",
    "tel": "02-764-3521",
    "time": "월~금 09:00~18:00",
    "lang": "베트남어",
    "detail": "상담┃한국어┃교육문화┃아동가족┃직업교육┃통번역",
    "lat": 37.57695471,
    "lng": 127.0098716,
    "law": 0,
    "medical": 0,
    "consulting": 0,
    "edu": 1
  },
  {
    "index": 120,
    "name": "서울글로벌센터(생활)",
    "sigungu": "종로구",
    "type": "한국어 교육",
    "addr": "종로구 종로38 서울글로벌센터빌딩 5층",
    "tel": "02-2075-4180",
    "time": "월~금 09:00~18:00",
    "lang": "러시아어, 몽골어, 베트남어, 영어, 우즈벡어,일본어, 중국어, 태국어, 필리핀어, 아랍어, 인니어",
    "detail": "상담┃한국어┃교육문화",
    "lat": 37.56982139,
    "lng": 126.9814813,
    "law": 0,
    "medical": 0,
    "consulting": 0,
    "edu": 1
  },
  {
    "index": 121,
    "name": "중구다문화가족지원센터",
    "sigungu": "중구",
    "type": "한국어 교육",
    "addr": "중구 퇴계로 460 10층",
    "tel": "02-2254-3670",
    "time": "월~금 09:00~18:00",
    "lang": "몽골어",
    "detail": "상담┃한국어┃교육문화┃아동가족┃직업교육┃통번역",
    "lat": 37.56509222,
    "lng": 127.022787,
    "law": 0,
    "medical": 0,
    "consulting": 0,
    "edu": 1
  },
  {
    "index": 122,
    "name": "동대문글로벌센터",
    "sigungu": "중구",
    "type": "한국어 교육",
    "addr": "중구 마른내로 146 청인빌딩 7층",
    "tel": "02-2271-9521",
    "time": "월~일 09:00~18:00",
    "lang": "러시아어, 몽골어",
    "detail": "비즈니스 및 생활상담┃창업교육┃한국어┃커뮤니티 입주시설",
    "lat": 37.56455735,
    "lng": 127.0041743,
    "law": 0,
    "medical": 0,
    "consulting": 0,
    "edu": 1
  },
  {
    "index": 123,
    "name": "부산광역시 국제교류재단",
    "sigungu": "부산광역시 연제구",
    "type": "무료법률상담",
    "addr": "부산 연제구 중앙대로 1000 국민연금 부산회관 13층",
    "tel": "051-711-6878",
    "time": "월~금 09:00~18:00",
    "lang": "영어, 중국어, 베트남어, 러시아어, 인도네시아어, 우즈베키스탄어",
    "detail": "법률 l 국제교류협력사업 l 의료상담 l 한국어 교육 l 번역서비스",
    "lat": 35.17786402,
    "lng": 129.0756436,
    "law": 1,
    "medical": 0,
    "consulting": 0,
    "edu": 0
  },
  {
    "index": 124,
    "name": "경남이주민 노동복지센터",
    "sigungu": "경상남도 창원시",
    "type": "무료법률상담",
    "addr": "경남 창원시 의창구 사화로 18번길 30(팔용동)",
    "tel": "055-277-8779",
    "time": "월~금 09:00~18:00",
    "lang": "필리핀, 베트남, 파키스탄, 인도네시아, 방글라데시, 스리랑카, 중국, 네팔, 우즈베키스탄(통역지원)",
    "detail": "상담(임금 등) l 의료봉사 l 문화 l 다문화가정 지원 l 정책개발 지원",
    "lat": 35.25483471,
    "lng": 128.607665,
    "law": 1,
    "medical": 0,
    "consulting": 0,
    "edu": 0
  },
  {
    "index": 125,
    "name": "사단법인 이주민과함께",
    "sigungu": "부산광역시 진구",
    "type": "무료진료",
    "addr": "부산광역시 진구 전포2동 193-38 SM빌딩 4-5층",
    "tel": "051-802-3438",
    "time": "월~금 09:00~18:00",
    "lang": "영어",
    "detail": "무료진료 l 한국어 교육",
    "lat": 35.15948778,
    "lng": 129.065937,
    "law": 0,
    "medical": 1,
    "consulting": 0,
    "edu": 0
  },
  {
    "index": 126,
    "name": "양산외국인 노동자의집",
    "sigungu": "경상남도 양산시",
    "type": "무료진료",
    "addr": "경남 양산시 북안북7길35 양산시근로자종합복지관 1층",
    "tel": "055-388-0988",
    "time": "월~금 09:00~18:00",
    "lang": "영어",
    "detail": "상담 l 의료지원 l 한국어 교육 l 산재교육 l 문화행사",
    "lat": 35.35018498,
    "lng": 129.0417768,
    "law": 0,
    "medical": 1,
    "consulting": 0,
    "edu": 0
  },
  {
    "index": 127,
    "name": "사단법인 삼산거주외국인지원협회",
    "sigungu": "부산광역시 사상구",
    "type": "일반상담",
    "addr": "부산광역시 사상구 사상로 170번길 28-9",
    "tel": "055-902-2248",
    "time": "월~금 09:00~18:00",
    "lang": "영어",
    "detail": "상담┃한국어┃교육문화",
    "lat": 35.16090133,
    "lng": 128.9872839,
    "law": 0,
    "medical": 0,
    "consulting": 1,
    "edu": 0
  },
  {
    "index": 128,
    "name": "창원이주민센터",
    "sigungu": "경상남도 창원시",
    "type": "일반상담",
    "addr": "경남 창원시 의창구 창이대로 600번길(신월동)",
    "tel": "055-275-8203",
    "time": "월~금 09:00~18:00",
    "lang": "영어",
    "detail": "상담┃한국어┃교육문화",
    "lat": 35.22915339,
    "lng": 128.6945867,
    "law": 0,
    "medical": 0,
    "consulting": 1,
    "edu": 0
  },
  {
    "index": 129,
    "name": "웅남동외국인 커뮤니티센터",
    "sigungu": "경상남도 창원시",
    "type": "일반상담",
    "addr": "경남 창원시 성산구 창원대로 1086",
    "tel": "055-272-5718",
    "time": "월~금 09:00~18:00",
    "lang": "영어",
    "detail": "상담 l 쉼터",
    "lat": 35.19830306,
    "lng": 128.7027948,
    "law": 0,
    "medical": 0,
    "consulting": 1,
    "edu": 0
  },
  {
    "index": 130,
    "name": "외국인 노동자지원센터 창원센터",
    "sigungu": "경상남도 창원시",
    "type": "일반상담",
    "addr": "경남 창원시 마산합포구 3. 1.5대로 203",
    "tel": "055-338-2727",
    "time": "월~금 09:00~18:00",
    "lang": "영어",
    "detail": "상담┃한국어┃교육문화",
    "lat": 35.1962651,
    "lng": 128.564633,
    "law": 0,
    "medical": 0,
    "consulting": 1,
    "edu": 0
  },
  {
    "index": 131,
    "name": "진주사랑의 집",
    "sigungu": "경상남도 진주시",
    "type": "일반상담",
    "addr": "경남 진주시 돗골로 7번길 7",
    "tel": "055-763-0707",
    "time": "월~금 09:00~18:00",
    "lang": "영어",
    "detail": "상담┃한국어┃교육문화",
    "lat": 35.16857273,
    "lng": 128.1122198,
    "law": 0,
    "medical": 0,
    "consulting": 1,
    "edu": 0
  },
  {
    "index": 132,
    "name": "사천다문화통합지원센터",
    "sigungu": "경상남도 사천시",
    "type": "일반상담",
    "addr": "경남 사천시 사천읍 무산로 21 2층",
    "tel": "055-855-4003",
    "time": "월~금 09:00~18:00",
    "lang": "영어",
    "detail": "상담 l 한국어 l 창업교육 l 쉼터",
    "lat": 35.08715145,
    "lng": 128.0876738,
    "law": 0,
    "medical": 0,
    "consulting": 1,
    "edu": 0
  },
  {
    "index": 133,
    "name": "사천이주민자활복지센터",
    "sigungu": "경상남도 사천시",
    "type": "일반상담",
    "addr": "경상남도 사천시 항공로 59-8 사천이주민자활복지센터",
    "tel": "010-3874-0303",
    "time": "월~금 09:00~18:00",
    "lang": "영어",
    "detail": "상담┃한국어┃교육문화",
    "lat": 35.07980961,
    "lng": 128.0773445,
    "law": 0,
    "medical": 0,
    "consulting": 1,
    "edu": 0
  },
  {
    "index": 134,
    "name": "외국인 노동자지원센터 양산센터 (사단법인 희망웅상)",
    "sigungu": "경상남도 양산시",
    "type": "일반상담",
    "addr": "경남 양산시 연호로 28",
    "tel": "055-912-0255",
    "time": "월~금 09:00~18:00",
    "lang": "영어",
    "detail": "상담 l 한국어 l 창업교육 l 쉼터",
    "lat": 35.41670032,
    "lng": 129.1738589,
    "law": 0,
    "medical": 0,
    "consulting": 1,
    "edu": 0
  },
  {
    "index": 135,
    "name": "김해 외국인노동자지원센터",
    "sigungu": "경상남도 김해시",
    "type": "일반상담",
    "addr": "경남 김해시 가락로 81 아이조이빌딩 6-7층",
    "tel": "055-338-2727",
    "time": "월~금 09:00~18:00",
    "lang": "필리핀, 베트남, 파키스탄, 인도네시아, 방글라데시, 스리랑카, 중국, 네팔, 우즈베키스탄(통역지원)",
    "detail": "상담┃한국어┃교육문화",
    "lat": 35.23383916,
    "lng": 128.8812605,
    "law": 0,
    "medical": 0,
    "consulting": 1,
    "edu": 0
  },
  {
    "index": 136,
    "name": "김해 이주민 지원센터",
    "sigungu": "경상남도 김해시",
    "type": "일반상담",
    "addr": "경남 김해시 분성로 126-1",
    "tel": "055-324-8227",
    "time": "월~금 09:00~18:00",
    "lang": "영어",
    "detail": "상담┃한국어┃교육문화",
    "lat": 35.22983822,
    "lng": 128.860489,
    "law": 0,
    "medical": 0,
    "consulting": 1,
    "edu": 0
  },
  {
    "index": 137,
    "name": "부산외국인근로자지원센터",
    "sigungu": "부산광역시 사상구",
    "type": "한국어 교육",
    "addr": "부산광역시 사상구 사상로 448(모라동) 부산은행 3층",
    "tel": "051-304-0900",
    "time": "월~금 09:00~18:00",
    "lang": "영어, 중국어, 베트남어, 미얀마어, 인도네시아어",
    "detail": "상담 l 교육 l 문화행사 l 다문화도서관 운영",
    "lat": 35.1843921,
    "lng": 128.9869074,
    "law": 0,
    "medical": 0,
    "consulting": 0,
    "edu": 1
  },
  {
    "index": 138,
    "name": "남구외국인근로자 상담센터",
    "sigungu": "경상북도 포항시",
    "type": "일반상담",
    "addr": "경북 포항시 남구 오천읍 해병로 347번길 34",
    "tel": "054-291-0191",
    "time": "월~금 09:00~18:00",
    "lang": "영어",
    "detail": "상담┃한국어┃교육문화",
    "lat": 35.96332765,
    "lng": 129.4135209,
    "law": 0,
    "medical": 0,
    "consulting": 1,
    "edu": 0
  },
  {
    "index": 139,
    "name": "북구외국인근로자 상담센터",
    "sigungu": "경상북도 포항시",
    "type": "일반상담",
    "addr": "경북 포항시 북구 우창동로 97",
    "tel": "054-244-9950",
    "time": "월~금 09:00~18:00",
    "lang": "영어",
    "detail": "상담┃한국어┃교육문화",
    "lat": 36.05909243,
    "lng": 129.3674071,
    "law": 0,
    "medical": 0,
    "consulting": 1,
    "edu": 0
  },
  {
    "index": 140,
    "name": "경주YMCA 외국인근로자상담센터",
    "sigungu": "경상북도 경주시",
    "type": "무료법률상담",
    "addr": "경북 경주시 백율로 8번길 12",
    "tel": "054-743-2888",
    "time": "월~금 09:00~18:00",
    "lang": "영어",
    "detail": "상담 l 법률지원 l 한국어 l 교육문화",
    "lat": 35.8557838,
    "lng": 129.2173679,
    "law": 1,
    "medical": 0,
    "consulting": 0,
    "edu": 0
  },
  {
    "index": 141,
    "name": "경주외동 외국인상담센터 및 쉼터",
    "sigungu": "경상북도 경주시",
    "type": "무료법률상담",
    "addr": "경북 경주시 외동읍 입실로 1길 84",
    "tel": "054-746-1953",
    "time": "월~금 09:00~18:00",
    "lang": "영어",
    "detail": "상담 l 법률지원 l 한국어 l 교육문화",
    "lat": 35.71601174,
    "lng": 129.3255731,
    "law": 1,
    "medical": 0,
    "consulting": 0,
    "edu": 0
  },
  {
    "index": 142,
    "name": "구미가톨릭근로자 문화센터",
    "sigungu": "경상북도 구미시",
    "type": "일반상담",
    "addr": "경북 구미시 백산로 28",
    "tel": "054-455-2816",
    "time": "월~금 09:00~18:00",
    "lang": "영어",
    "detail": "상담┃한국어┃교육문화",
    "lat": 36.12329036,
    "lng": 128.3371967,
    "law": 0,
    "medical": 0,
    "consulting": 1,
    "edu": 0
  },
  {
    "index": 143,
    "name": "구미제일외국인 상담센터",
    "sigungu": "경상북도 구미시",
    "type": "일반상담",
    "addr": "경북 구미시 임수로 80",
    "tel": "054-471-8661",
    "time": "월~금 09:00~18:00",
    "lang": "영어",
    "detail": "상담┃한국어┃교육문화",
    "lat": 36.11789941,
    "lng": 128.4010832,
    "law": 0,
    "medical": 0,
    "consulting": 1,
    "edu": 0
  },
  {
    "index": 144,
    "name": "꿈을이루는사람들 마하이주민센터",
    "sigungu": "경상북도 구미시",
    "type": "일반상담",
    "addr": "경북 구미시 지산1길 46-8",
    "tel": "054-458-0755",
    "time": "월~금 09:00~18:00",
    "lang": "영어",
    "detail": "상담┃한국어┃교육문화",
    "lat": 36.13215027,
    "lng": 128.3413949,
    "law": 0,
    "medical": 0,
    "consulting": 1,
    "edu": 0
  },
  {
    "index": 145,
    "name": "영천 외국인주민지원센터",
    "sigungu": "경상북도 영천시",
    "type": "일반상담",
    "addr": "경북 영천시 완산중앙3길 30",
    "tel": "054-333-9125",
    "time": "월~금 09:00~18:00",
    "lang": "영어",
    "detail": "상담┃한국어┃교육문화",
    "lat": 35.96255811,
    "lng": 128.9374877,
    "law": 0,
    "medical": 0,
    "consulting": 1,
    "edu": 0
  },
  {
    "index": 146,
    "name": "경산 외국인 근로자 상담소",
    "sigungu": "경상북도 경산시",
    "type": "무료법률상담",
    "addr": "경북 경산시 진량읍 공단4로 149",
    "tel": "053-854-8333",
    "time": "월~금 09:00~18:00",
    "lang": "영어",
    "detail": "상담 l 법률지원 l",
    "lat": 35.87058451,
    "lng": 128.8281667,
    "law": 1,
    "medical": 0,
    "consulting": 0,
    "edu": 0
  },
  {
    "index": 147,
    "name": "칠곡종합상담센터",
    "sigungu": "경상북도 칠곡군",
    "type": "일반상담",
    "addr": "경북 칠곡군 왜관읍 석전3리 571-1번지",
    "tel": "054-973-8290",
    "time": "월~금 09:00~18:00",
    "lang": "영어",
    "detail": "상담┃한국어┃교육문화",
    "lat": 35.999964,
    "lng": 128.402648,
    "law": 0,
    "medical": 0,
    "consulting": 1,
    "edu": 0
  },
  {
    "index": 148,
    "name": "구미종합사회복지관",
    "sigungu": "경상북도 구미시",
    "type": "일반상담",
    "addr": "경북 구미시 검성로 103-2",
    "tel": "054-482-5060",
    "time": "월~금 09:00~18:00",
    "lang": "영어",
    "detail": "상담┃한국어┃교육문화",
    "lat": 36.11850134,
    "lng": 128.4282472,
    "law": 0,
    "medical": 0,
    "consulting": 1,
    "edu": 0
  },
  {
    "index": 149,
    "name": "경북 이주민센터, 경북하나센터",
    "sigungu": "경상북도 구미시",
    "type": "무료진료",
    "addr": "경북 구미시 송원동로 77, 3층",
    "tel": "054-444-8861",
    "time": "월~금 09:00~18:00",
    "lang": "영어",
    "detail": "상담 l 법률지원 l 의료지원 l 한국어 l 교육문화",
    "lat": 36.12345042,
    "lng": 128.3511991,
    "law": 0,
    "medical": 1,
    "consulting": 0,
    "edu": 0
  },
  {
    "index": 150,
    "name": "대구 외국인 노동자 지원센터",
    "sigungu": "대구광역시",
    "type": "무료법률상담",
    "addr": "대구 달성군 다사읍 달구벌대로 863 진광타워 8-9층",
    "tel": "053-654-9700",
    "time": "월~금 09:00~18:00",
    "lang": "영어",
    "detail": "상담┃법률지원 l 한국어┃교육문화",
    "lat": 35.85894948,
    "lng": 128.4644378,
    "law": 1,
    "medical": 0,
    "consulting": 0,
    "edu": 0
  },
  {
    "index": 151,
    "name": "대구 국제교류진흥원",
    "sigungu": "대구광역시",
    "type": "무료법률상담",
    "addr": "대구 동구 동대구로 481 대구지식서비스센터 1층",
    "tel": "053-623-6788",
    "time": "월~금 09:00~18:00",
    "lang": "영어, 중국어, 일본어",
    "detail": "상담┃법률지원 l 한국어┃교육문화",
    "lat": 35.87324851,
    "lng": 128.6248017,
    "law": 1,
    "medical": 0,
    "consulting": 0,
    "edu": 0
  },
  {
    "index": 152,
    "name": "목포시다문화가족지원센터",
    "sigungu": "전라남도 목포시",
    "type": "일반상담",
    "addr": "목포시 산정로 150번길 22(산정동)",
    "tel": "061-278-4222",
    "time": "월~금 09:00~18:00",
    "lang": "중국어, 베트남어, 러시아어",
    "detail": "한국어교육, 가족, 성평등, 인권, 사회통합, 상담, 방문교육, 언어발달지원, 통번역",
    "lat": 34.80040364,
    "lng": 126.3941594,
    "law": 0,
    "medical": 0,
    "consulting": 1,
    "edu": 0
  },
  {
    "index": 153,
    "name": "여수시다문화가족지원센터",
    "sigungu": "전라남도 여수시",
    "type": "일반상담",
    "addr": "여수시 새터로 33(신기동)",
    "tel": "061-659-5428",
    "time": "월~금 09:00~18:00",
    "lang": "중국어, 베트남어",
    "detail": "한국어교육, 가족, 성평등, 인권, 사회통합, 상담, 방문교육, 언어발달지원, 통번역",
    "lat": 34.75962303,
    "lng": 127.6753181,
    "law": 0,
    "medical": 0,
    "consulting": 1,
    "edu": 0
  },
  {
    "index": 154,
    "name": "순천시건강가정∙다문화가족지원센터",
    "sigungu": "전라남도 순천시",
    "type": "일반상담",
    "addr": "순천시 중앙로 255(석현동) 평생교육권 B동 1층",
    "tel": "061-750-5353",
    "time": "월~금 09:00~18:00",
    "lang": "베트남어",
    "detail": "한국어교육, 가족, 성평등, 인권, 사회통합, 상담, 방문교육, 언어발달지원, 통번역",
    "lat": 34.966763,
    "lng": 127.4809219,
    "law": 0,
    "medical": 0,
    "consulting": 1,
    "edu": 0
  },
  {
    "index": 155,
    "name": "나주시다문화가족지원센터",
    "sigungu": "전라남도 나주시",
    "type": "일반상담",
    "addr": "나주시 예향로 4075",
    "tel": "061-331-0709",
    "time": "월~금 09:00~18:00",
    "lang": "중국어, 베트남어",
    "detail": "한국어교육, 가족, 성평등, 인권, 사회통합, 상담, 방문교육, 언어발달지원, 통번역, 취업, 직업교육",
    "lat": 35.01655624,
    "lng": 126.7133382,
    "law": 0,
    "medical": 0,
    "consulting": 1,
    "edu": 0
  },
  {
    "index": 156,
    "name": "광양시다문화가족지원센터",
    "sigungu": "전라남도 광양시",
    "type": "일반상담",
    "addr": "전라남도 광양시 중마로 410, 6층",
    "tel": "061-797-6800",
    "time": "월~금 09:00~18:00",
    "lang": "",
    "detail": "한국어교육, 가족, 성평등, 인권, 사회통합, 상담, 방문교육, 언어발달지원, 통번역",
    "lat": 34.94650263,
    "lng": 127.7030713,
    "law": 0,
    "medical": 0,
    "consulting": 1,
    "edu": 0
  },
  {
    "index": 157,
    "name": "담양군다문화가족지원센터",
    "sigungu": "전라남도 담양군",
    "type": "일반상담",
    "addr": "전라남도 담양군 담양읍 완동길 10-5 여성회관 1층",
    "tel": "061-383-3655",
    "time": "월~금 09:00~18:00",
    "lang": "영어, 중국어, 일본어, 베트남어, 몽골어, 러시아어, 필리핀어, 캄보디아어, 태국어, 우즈베크어, 네팔어",
    "detail": "한국어교육, 가족, 성평등, 인권, 사회통합, 상담, 방문교육, 언어발달지원, 통번역, 취업, 직업교육",
    "lat": 35.32470339,
    "lng": 126.9807448,
    "law": 0,
    "medical": 0,
    "consulting": 1,
    "edu": 0
  },
  {
    "index": 158,
    "name": "곡성군다문화가족지원센터",
    "sigungu": "전라남도 곡성군",
    "type": "일반상담",
    "addr": "전라남도 곡성군 곡성읍 학정3길 6",
    "tel": "061-362-5411",
    "time": "월~금 09:00~18:00",
    "lang": "영어, 일본어, 베트남어, 필피핀어, 태국어",
    "detail": "한국어교육, 가족, 성평등, 인권, 사회통합, 상담, 방문교육, 언어발달지원, 통번역, 취업, 직업교육",
    "lat": 35.28342588,
    "lng": 127.2899473,
    "law": 0,
    "medical": 0,
    "consulting": 1,
    "edu": 0
  },
  {
    "index": 159,
    "name": "고흥군다문화가족지원센터",
    "sigungu": "전라남도 고흥군",
    "type": "일반상담",
    "addr": "전라남도 고흥군 고흥읍 고흥로 1656",
    "tel": "061-832-5399",
    "time": "월~금 09:00~18:00",
    "lang": "베트남어",
    "detail": "한국어교육, 언어발달지원, 상담, 통번역",
    "lat": 34.60173067,
    "lng": 127.2794423,
    "law": 0,
    "medical": 0,
    "consulting": 1,
    "edu": 0
  },
  {
    "index": 160,
    "name": "보성군다문화가족지원센터",
    "sigungu": "전라남도 보성군",
    "type": "일반상담",
    "addr": "전라남도 보성군 보성읍 송재로 186-5",
    "tel": "061-852-2664",
    "time": "월~금 09:00~18:00",
    "lang": "",
    "detail": "한국어교육, 가족, 성평등, 인권, 사회통합, 상담, 방문교육, 언어발달지원, 통번역, 취업, 직업교육",
    "lat": 34.77269287,
    "lng": 127.0815338,
    "law": 0,
    "medical": 0,
    "consulting": 1,
    "edu": 0
  },
  {
    "index": 161,
    "name": "화순군건강가정다문화가족지원센터",
    "sigungu": "전라남도 화순군",
    "type": "일반상담",
    "addr": "전라남도 화순군 화순읍 대교로 11 화순희망센터 2층",
    "tel": "061-375-1057",
    "time": "월~금 09:00~18:00",
    "lang": "영어, 중국어, 일본어, 베트남어, 몽골어, 러시아어, 필리핀어, 캄보디아어, 태국어",
    "detail": "한국어교육, 가족, 성평등, 인권, 사회통합, 상담, 방문교육, 언어발달지원, 통번역, 취업, 직업교육",
    "lat": 35.06357012,
    "lng": 126.9804467,
    "law": 0,
    "medical": 0,
    "consulting": 1,
    "edu": 0
  },
  {
    "index": 162,
    "name": "장항군다문화가족지원센터",
    "sigungu": "전라남도 장흥군",
    "type": "일반상담",
    "addr": "전라남도 장흥군 장흥읍 흥성로 37-24 장흥종합사회복지관 4층",
    "tel": "061-864-4810",
    "time": "월~금 09:00~18:00",
    "lang": "일본어, 베트남어, 필리핀어",
    "detail": "한국어교육, 가족, 성평등, 인권, 사회통합, 상담, 방문교육, 언어발달지원, 통번역, 취업, 직업교육",
    "lat": 34.67551116,
    "lng": 126.907026,
    "law": 0,
    "medical": 0,
    "consulting": 1,
    "edu": 0
  },
  {
    "index": 163,
    "name": "강진군다문화가족지원센터",
    "sigungu": "전라남도 강진군",
    "type": "일반상담",
    "addr": "전라남도 강진군 강진읍 사의재길 41",
    "tel": "061-433-9004",
    "time": "월~금 09:00~18:00",
    "lang": "",
    "detail": "한국어교육, 가족, 성평등, 인권, 사회통합, 상담, 방문교육, 언어발달지원, 통번역, 취업, 창업",
    "lat": 34.64469158,
    "lng": 126.771809,
    "law": 0,
    "medical": 0,
    "consulting": 1,
    "edu": 0
  },
  {
    "index": 164,
    "name": "해남군건강가정∙다문화가족지원센터",
    "sigungu": "전라남도 해남군",
    "type": "일반상담",
    "addr": "전라남도 해남군 해남읍 북부순환로 10",
    "tel": "061-534-0017",
    "time": "월~금 09:00~18:00",
    "lang": "",
    "detail": "한국어교육, 가족, 성평등, 인권, 사회통합, 상담, 방문교육, 언어발달지원, 통번역, 취업",
    "lat": 34.57187825,
    "lng": 126.6099926,
    "law": 0,
    "medical": 0,
    "consulting": 1,
    "edu": 0
  },
  {
    "index": 165,
    "name": "영암군다문화가족지원센터",
    "sigungu": "전라남도 영암군",
    "type": "일반상담",
    "addr": "전라남도 영암군 삼호읍 세가래로 88 삼호종합복지회관 2층",
    "tel": "061-463-2929",
    "time": "월~금 09:00~18:00",
    "lang": "베트남어",
    "detail": "한국어교육, 가족, 성평등, 인권, 사회통합, 상담, 방문교육, 언어발달지원, 통번역, 취업",
    "lat": 34.74866933,
    "lng": 126.4746397,
    "law": 0,
    "medical": 0,
    "consulting": 1,
    "edu": 0
  },
  {
    "index": 166,
    "name": "무안군다문화가족지원센터",
    "sigungu": "전라남도 무안군",
    "type": "일반상담",
    "addr": "전라남도 무안군 무안읍 무안로 511 2층",
    "tel": "061-452-1813",
    "time": "월~금 09:00~18:00",
    "lang": "베트남어",
    "detail": "한국어교육, 가족, 성평등, 인권, 사회통합, 상담, 방문교육, 언어발달지원, 통번역, 취업, 직업교육, 문화",
    "lat": 34.98902803,
    "lng": 126.4791326,
    "law": 0,
    "medical": 0,
    "consulting": 1,
    "edu": 0
  },
  {
    "index": 167,
    "name": "함평군건강가정∙다문화가족지원센터",
    "sigungu": "전라남도 함평군",
    "type": "일반상담",
    "addr": "전라남도 함평꾼 함평읍 들새밀 36 함평종합천지복직관 4층",
    "tel": "061-324-5431",
    "time": "월~금 09:00~18:00",
    "lang": "중국어, 일본어, 베트남어, 몽골어, 필리핀어, 캄보디아어",
    "detail": "한국어교육, 가족, 성평등, 인권, 사회통합, 상담, 방문교육, 언어발달지원, 통번역, 취업, 직업교육",
    "lat": 35.0576249,
    "lng": 126.517912,
    "law": 0,
    "medical": 0,
    "consulting": 1,
    "edu": 0
  },
  {
    "index": 168,
    "name": "영광군다문화가족지원센터",
    "sigungu": "전라남도 영광군",
    "type": "일반상담",
    "addr": "전라남도 영광군 중앙로 3길 6-11번지 (여성문화센터 3층)",
    "tel": "061-353-7997",
    "time": "월~금 09:00~18:00",
    "lang": "",
    "detail": "한국어교육, 가족, 성평등, 인권, 사회통합, 상담, 방문교육, 언어발달지원, 통번역, 취업, 직업교육",
    "lat": 35.27262535,
    "lng": 126.5128237,
    "law": 0,
    "medical": 0,
    "consulting": 1,
    "edu": 0
  },
  {
    "index": 169,
    "name": "장성군건강가정∙다문화가족지원센터",
    "sigungu": "전라남도 장성군",
    "type": "일반상담",
    "addr": "전라남도 장성군 충무5길 24 (가정복지회관)",
    "tel": "061-393-5420",
    "time": "월~금 09:00~18:00",
    "lang": "",
    "detail": "한국어교육, 가족, 성평등, 인권, 사회통합, 상담, 방문교육, 언어발달지원, 통번역, 취업, 진학, 직업교육",
    "lat": 35.2992039,
    "lng": 126.7847852,
    "law": 0,
    "medical": 0,
    "consulting": 1,
    "edu": 0
  },
  {
    "index": 170,
    "name": "완도군다문화가족지원센터",
    "sigungu": "전라남도 완도군",
    "type": "일반상담",
    "addr": "전라남도 완도군 완도읍 개포로 34-10",
    "tel": "061-554-3400",
    "time": "월~금 09:00~18:00",
    "lang": "",
    "detail": "한국어교육, 가족, 성평등, 인권, 사회통합, 상담, 방문교육, 언어발달지원, 통번역, 취업",
    "lat": 34.31621606,
    "lng": 126.7485386,
    "law": 0,
    "medical": 0,
    "consulting": 1,
    "edu": 0
  },
  {
    "index": 171,
    "name": "진도군다문화가족지원센터",
    "sigungu": "전라남도 진도군",
    "type": "일반상담",
    "addr": "전라남도 진도군 진도읍 진도대로 7195 진도여성플라자 1층",
    "tel": "061-544-9993",
    "time": "월~금 09:00~18:00",
    "lang": "중국어, 베트남어",
    "detail": "한국어교육, 가족, 성평등, 인권, 사회통합, 상담, 방문교육, 언어발달지원, 통번역, 취업, 직업교육",
    "lat": 34.47928849,
    "lng": 126.2687593,
    "law": 0,
    "medical": 0,
    "consulting": 1,
    "edu": 0
  },
  {
    "index": 172,
    "name": "신안군다문화가족지원센터",
    "sigungu": "전라남도 신안군",
    "type": "일반상담",
    "addr": "전라남도 신안군 압해읍 천사로 1004 보건소동 3층",
    "tel": "061-240-8706",
    "time": "월~금 09:00~18:00",
    "lang": "",
    "detail": "한국어교육, 가족, 성평등, 인권, 사회통합, 상담, 방문교육, 언어발달지원, 통번역, 생활지도, 문화, 육아지원",
    "lat": 34.83360336,
    "lng": 126.3514258,
    "law": 0,
    "medical": 0,
    "consulting": 1,
    "edu": 0
  },
  {
    "index": 173,
    "name": "광주외국인노동자지원센터",
    "sigungu": "광주광역시 광산구",
    "type": "일반상담",
    "addr": "광주광역시 광산구 풍영로 145번길 82 (구. 흑석동 510번지)",
    "tel": "062-946-1199",
    "time": "월~금 09:00~18:00",
    "lang": "베트남어, 중국어, 미얀마어, 몽골어, 우즈베크어, 키르기스탄어, 캄보디아어, 태국어, 라오스어, 인도네시아어, 파키스탄어, 방글라데시어, 동티모르어, 필리핀어, 스리랑카어, 네팔어",
    "detail": "상담, 한국어 교육, 정보화 교육, 생활법률 교육, 안전 교육, 귀국의식 교육, 귀국예정자지원 교육, 무료 진료, 무료 이미용",
    "lat": 35.18350946,
    "lng": 126.8098282,
    "law": 0,
    "medical": 0,
    "consulting": 1,
    "edu": 0
  },
  {
    "index": 174,
    "name": "광산구다문화가족지원센터",
    "sigungu": "광주광역시 광산구",
    "type": "일반상담",
    "addr": "광주광역시 광산구 광산로 57-1(송정동) 이주민회관 1층",
    "tel": "062-954-8004",
    "time": "월~금 09:00~18:00",
    "lang": "영어, 중국어, 베트남어, 필리핀어",
    "detail": "한국어교육, 가족, 성평등, 인권, 사회통합, 상담, 방문교육, 언어발달지원, 통번역, 취업, 직업교육",
    "lat": 35.14038645,
    "lng": 126.797428,
    "law": 0,
    "medical": 0,
    "consulting": 1,
    "edu": 0
  },
  {
    "index": 175,
    "name": "서구다문화가족지원센터",
    "sigungu": "광주광역시 서구",
    "type": "일반상담",
    "addr": "광주광역시 서구 상무대로 1224번길 18 사)건강가정연구개발원",
    "tel": "062-369-0074",
    "time": "월~금 09:00~18:00",
    "lang": "",
    "detail": "한국어교육, 가족, 성평등, 인권, 사회통합, 상담, 방문교육, 언어발달지원, 통번역, 취업, 직업교육",
    "lat": 35.15520032,
    "lng": 126.8967157,
    "law": 0,
    "medical": 0,
    "consulting": 1,
    "edu": 0
  },
  {
    "index": 176,
    "name": "남구다문화가족지원센터",
    "sigungu": "광주광역시 남구",
    "type": "일반상담",
    "addr": "광주광역시 남구 군분로 155 초당빌딩 2층",
    "tel": "062-351-5432",
    "time": "월~금 09:00~18:00",
    "lang": "중국어, 베트남어",
    "detail": "한국어교육, 가족, 성평등, 인권, 사회통합, 상담, 방문교육, 언어발달지원, 통번역, 취업, 직업교육",
    "lat": 35.14582478,
    "lng": 126.8870706,
    "law": 0,
    "medical": 0,
    "consulting": 1,
    "edu": 0
  },
  {
    "index": 177,
    "name": "북구다문화가족지원센터",
    "sigungu": "광주광역시 북구",
    "type": "일반상담",
    "addr": "광구광역시 북구 하서로 195",
    "tel": "062-363-2963",
    "time": "월~금 09:00~18:00",
    "lang": "",
    "detail": "한국어교육, 가족, 성평등, 인권, 사회통합, 상담, 방문교육, 언어발달지원, 통번역, 취업, 직업교육",
    "lat": 35.1929234,
    "lng": 126.8739928,
    "law": 0,
    "medical": 0,
    "consulting": 1,
    "edu": 0
  },
  {
    "index": 178,
    "name": "전주시다문화가족지원센터",
    "sigungu": "전라북도 전주시",
    "type": "일반상담",
    "addr": "전라북도 전주시 완산구 태평5길 26번지 3층",
    "tel": "063-243-0333",
    "time": "월~금 09:00~18:00",
    "lang": "",
    "detail": "한국어교육, 가족, 성평등, 인권, 사회통합, 상담, 방문교육, 언어발달지원, 통번역, 생활지도, 청소년진로지원, 부모되기교육",
    "lat": 35.82388362,
    "lng": 127.1439117,
    "law": 0,
    "medical": 0,
    "consulting": 1,
    "edu": 0
  },
  {
    "index": 179,
    "name": "군산시다문화가족지원센터",
    "sigungu": "전라북도 군산시",
    "type": "일반상담",
    "addr": "전라북도 군산시 축동1길 15-2",
    "tel": "063-443-0053",
    "time": "월~금 09:00~18:00",
    "lang": "중국어, 베트남어",
    "detail": "한국어교육, 가족, 성평등, 인권, 사회통합, 상담, 방문교육, 언어발달지원, 통번역, 생활지도, 부모되기교육",
    "lat": 35.96546338,
    "lng": 126.7137305,
    "law": 0,
    "medical": 0,
    "consulting": 1,
    "edu": 0
  },
  {
    "index": 180,
    "name": "익산시다문화가족지원센터",
    "sigungu": "전라북도 익산시",
    "type": "일반상담",
    "addr": "전라북도 익산시 고현로 10-3",
    "tel": "063-841-6040",
    "time": "월~금 09:00~18:00",
    "lang": "중국어, 베트남어, 캄보디아어, 태국어, 우즈베크어",
    "detail": "한국어교육, 가족, 성평등, 인권, 사회통합, 상담, 방문교육, 언어발달지원, 통번역, 취업",
    "lat": 35.93831684,
    "lng": 126.9408825,
    "law": 0,
    "medical": 0,
    "consulting": 1,
    "edu": 0
  },
  {
    "index": 181,
    "name": "정읍시다문화가족지원센터",
    "sigungu": "전라북도 정읍시",
    "type": "일반상담",
    "addr": "전라북도 정읍시 중앙2길 22",
    "tel": "063-531-0309",
    "time": "월~금 09:00~18:00",
    "lang": "중국어, 베트남어",
    "detail": "한국어교육, 가족, 성평등, 인권, 사회통합, 상담, 방문교육, 언어발달지원, 통번역, 취업",
    "lat": 35.5676679,
    "lng": 126.8528989,
    "law": 0,
    "medical": 0,
    "consulting": 1,
    "edu": 0
  },
  {
    "index": 182,
    "name": "남원시다문화가족지원센터",
    "sigungu": "전라북도 남원시",
    "type": "일반상담",
    "addr": "전라북도 남원시 용성로 43(동충동 173-1번지)",
    "tel": "063-635-5474",
    "time": "월~금 09:00~18:00",
    "lang": "영어, 중국어, 베트남어, 필리핀어",
    "detail": "한국어교육, 가족, 성평등, 인권, 사회통합, 상담, 방문교육, 언어발달지원, 통번역, 취업, 진학, 직업교육",
    "lat": 35.40931831,
    "lng": 127.3812952,
    "law": 0,
    "medical": 0,
    "consulting": 1,
    "edu": 0
  },
  {
    "index": 183,
    "name": "김제시다문화가족지원센터",
    "sigungu": "전라북도 김제시",
    "type": "일반상담",
    "addr": "전라북도 김제시 요촌길 45 지평선어울림센터 2층",
    "tel": "063-545-8506",
    "time": "월~금 09:00~18:00",
    "lang": "",
    "detail": "한국어교육, 가족, 성평등, 인권, 사회통합, 상담, 방문교육, 언어발달지원, 통번역, 생활지도, 부모되기교육",
    "lat": 35.80595734,
    "lng": 126.8961144,
    "law": 0,
    "medical": 0,
    "consulting": 1,
    "edu": 0
  },
  {
    "index": 184,
    "name": "완주군다문화가족지원센터",
    "sigungu": "전라북도 완주군",
    "type": "일반상담",
    "addr": "전라북도 완주군 용진읍 완주로 462 완주가족문화교육원 1층",
    "tel": "063-231-1037",
    "time": "월~금 09:00~18:00",
    "lang": "",
    "detail": "한국어교육, 가족, 성평등, 인권, 사회통합, 상담, 방문교육, 언어발달지원, 통번역, 생활지도, 부모되기교육",
    "lat": 35.90633543,
    "lng": 127.1570485,
    "law": 0,
    "medical": 0,
    "consulting": 1,
    "edu": 0
  },
  {
    "index": 185,
    "name": "진안군다문화가족지원센터",
    "sigungu": "전라북도 진안군",
    "type": "일반상담",
    "addr": "전라북도 진안군 진안읍 중앙로 28 진안군다문화가족지원센터",
    "tel": "063-433-4888",
    "time": "월~금 09:00~18:00",
    "lang": "베트남어",
    "detail": "한국어교육, 가족, 성평등, 인권, 사회통합, 상담, 방문교육, 언어발달지원, 통번역, 취업, 창업",
    "lat": 35.78856014,
    "lng": 127.422844,
    "law": 0,
    "medical": 0,
    "consulting": 1,
    "edu": 0
  },
  {
    "index": 186,
    "name": "무주군건강가정∙다문화가족지원센터",
    "sigungu": "전라북도 무주군",
    "type": "일반상담",
    "addr": "전라북도 무주군 무주읍 신교로2길 17",
    "tel": "063-322-1130",
    "time": "월~금 09:00~18:00",
    "lang": "",
    "detail": "한국어교육, 가족, 성평등, 인권, 사회통합, 상담, 방문교육, 언어발달지원, 통번역, 취업",
    "lat": 36.01097909,
    "lng": 127.6659167,
    "law": 0,
    "medical": 0,
    "consulting": 1,
    "edu": 0
  },
  {
    "index": 187,
    "name": "고창군다문화가족지원센터",
    "sigungu": "전라북도 고창군",
    "type": "일반상담",
    "addr": "전라북도 고창군 고창읍 성산로 57",
    "tel": "063-561-1366",
    "time": "월~금 09:00~18:00",
    "lang": "중국어",
    "detail": "한국어교육, 가족, 성평등, 인권, 사회통합, 상담, 방문교육, 언어발달지원, 통번역, 취업, 진학, 직업교육",
    "lat": 35.43847001,
    "lng": 126.6989515,
    "law": 0,
    "medical": 0,
    "consulting": 1,
    "edu": 0
  },
  {
    "index": 188,
    "name": "부안군다문화가족지원센터",
    "sigungu": "전라북도 부안군",
    "type": "일반상담",
    "addr": "전라북도 부안군 부안읍 오리정로 89 부안군다문화가족지원센터 2층",
    "tel": "063-580-3941",
    "time": "월~금 09:00~18:00",
    "lang": "중국어",
    "detail": "한국어교육, 가족, 성평등, 인권, 사회통합, 상담, 방문교육, 언어발달지원, 통번역, 생활지도, 부모되기교육",
    "lat": 35.72339579,
    "lng": 126.7317745,
    "law": 0,
    "medical": 0,
    "consulting": 1,
    "edu": 0
  },
  {
    "index": 189,
    "name": "순창군다문화가족지원센터",
    "sigungu": "전라북도 순창군",
    "type": "일반상담",
    "addr": "전라북도 순창군 순창읍 장류로 192",
    "tel": "063-652-3844",
    "time": "월~금 09:00~18:00",
    "lang": "몽골어",
    "detail": "한국어교육, 가족, 성평등, 인권, 사회통합, 상담, 방문교육, 언어발달지원, 통번역, 취업, 진학, 직업교육",
    "lat": 35.37186843,
    "lng": 127.1265499,
    "law": 0,
    "medical": 0,
    "consulting": 1,
    "edu": 0
  },
  {
    "index": 190,
    "name": "임실군다문화가족지원센터",
    "sigungu": "전라북도 임실군",
    "type": "일반상담",
    "addr": "전라북도 임실군 임실읍 운수로 27 2층",
    "tel": "063-642-1837",
    "time": "월~금 09:00~18:00",
    "lang": "",
    "detail": "한국어교육, 가족, 성평등, 인권, 사회통합, 상담, 방문교육, 언어발달지원, 통번역, 생활지도, 문화, 육아지원",
    "lat": 35.61469393,
    "lng": 127.2840607,
    "law": 0,
    "medical": 0,
    "consulting": 1,
    "edu": 0
  },
  {
    "index": 191,
    "name": "장수군다문화가족지원센터",
    "sigungu": "전라북도 장수군",
    "type": "일반상담",
    "addr": "전라북도 장수군 장수읍 싸리재로 15",
    "tel": "063-352-3362",
    "time": "월~금 09:00~18:00",
    "lang": "중국어, 베트남어",
    "detail": "한국어교육, 가족, 성평등, 인권, 사회통합, 상담, 방문교육, 언어발달지원, 통번역, 취업, 진학, 직업교육",
    "lat": 35.64946818,
    "lng": 127.5206721,
    "law": 0,
    "medical": 0,
    "consulting": 1,
    "edu": 0
  },
  {
    "index": 192,
    "name": "대전중구다문화가족지원센터",
    "sigungu": "중구",
    "type": "일반상담",
    "addr": "대전광역시 중구 대흥로 128",
    "tel": "042-335-4566",
    "time": "월~금 09:00~18:00",
    "lang": "캄보디아어",
    "detail": "상담┃한국어┃교육문화",
    "lat": 36.3234058,
    "lng": 127.4264009,
    "law": 0,
    "medical": 0,
    "consulting": 1,
    "edu": 0
  },
  {
    "index": 193,
    "name": "대전서구다문화가족지원센터",
    "sigungu": "서구",
    "type": "일반상담",
    "addr": "대전광역시 서구 배재로 155-40, 우남관 103-1호",
    "tel": "042-520-5928",
    "time": "월~금 09:00~18:00",
    "lang": "베트남어, 몽골어",
    "detail": "상담┃한국어┃교육문화",
    "lat": 36.32323809,
    "lng": 127.3660759,
    "law": 0,
    "medical": 0,
    "consulting": 1,
    "edu": 0
  },
  {
    "index": 194,
    "name": "대전유성구다문화가족지원센터",
    "sigungu": "유성구",
    "type": "일반상담",
    "addr": "대전광역시 유성구 테크노6로 40-17",
    "tel": "042-252-9997",
    "time": "월~금 09:00~18:00",
    "lang": "중국어, 베트남어, 캄보디아어",
    "detail": "상담┃한국어┃교육문화",
    "lat": 36.42650494,
    "lng": 127.3944426,
    "law": 0,
    "medical": 0,
    "consulting": 1,
    "edu": 0
  },
  {
    "index": 195,
    "name": "대전동구다문화가족지원센터",
    "sigungu": "동구",
    "type": "일반상담",
    "addr": "대전광역시 동구 동대전로 171(자양동) 우송도서관 706호",
    "tel": "042-630-9945",
    "time": "월~금 09:00~18:00",
    "lang": "베트남어",
    "detail": "상담┃한국어┃교육문화",
    "lat": 36.33555895,
    "lng": 127.4437626,
    "law": 0,
    "medical": 0,
    "consulting": 1,
    "edu": 0
  },
  {
    "index": 196,
    "name": "대전대덕구다문화가족지원센터",
    "sigungu": "대덕구",
    "type": "일반상담",
    "addr": "대전광역시 대덕구 오정로 112",
    "tel": "042-639-2664",
    "time": "월~금 09:00~18:00",
    "lang": "중국어",
    "detail": "상담┃한국어┃교육문화",
    "lat": 36.35580348,
    "lng": 127.4071564,
    "law": 0,
    "medical": 0,
    "consulting": 1,
    "edu": 0
  },
  {
    "index": 197,
    "name": "세종시다문화가족지원센터",
    "sigungu": "세종시",
    "type": "일반상담",
    "addr": "세종특별자치시 새롬로 14(새롬동) 새롬종합복지센터 2층",
    "tel": "044-862-9336~8",
    "time": "월~금 09:00~18:00",
    "lang": "영어, 중국어, 베트남어, 필리핀어",
    "detail": "상담┃한국어┃교육문화",
    "lat": 36.48606886,
    "lng": 127.256698,
    "law": 0,
    "medical": 0,
    "consulting": 1,
    "edu": 0
  },
  {
    "index": 198,
    "name": "천안시다문화가족지원센터",
    "sigungu": "천안시",
    "type": "일반상담",
    "addr": "충청남도 천안시 동남구 은행길 15-1(문화동) 3층",
    "tel": "041-1577-8653",
    "time": "월~금 09:00~18:00",
    "lang": "중국어, 베트남어, 캄보디아어, 태국어",
    "detail": "상담┃한국어┃교육문화",
    "lat": 36.80814763,
    "lng": 127.1494708,
    "law": 0,
    "medical": 0,
    "consulting": 1,
    "edu": 0
  },
  {
    "index": 199,
    "name": "아산시다문화가족지원센터",
    "sigungu": "아산시",
    "type": "일반상담",
    "addr": "충청남도 아산시 온천동 시장길 29 시민문화복지회관",
    "tel": "041-548-9779",
    "time": "월~금 09:00~18:00",
    "lang": "중국어, 베트남어, 캄보디아어, 태국어",
    "detail": "상담┃한국어┃교육문화",
    "lat": 36.78329145,
    "lng": 127.0042302,
    "law": 0,
    "medical": 0,
    "consulting": 1,
    "edu": 0
  },
  {
    "index": 200,
    "name": "공주시다문화가족지원센터",
    "sigungu": "공주시",
    "type": "일반상담",
    "addr": "충청남도 공주시 우금티로 753(옥룡동) 유아교육관2층(공주대학교 옥룡캠퍼스)",
    "tel": "041-856-0883",
    "time": "월~금 09:00~18:00",
    "lang": "영어, 중국어, 베트남어",
    "detail": "상담┃한국어┃교육문화",
    "lat": 36.45056371,
    "lng": 127.1325361,
    "law": 0,
    "medical": 0,
    "consulting": 1,
    "edu": 0
  },
  {
    "index": 201,
    "name": "보령시다문화가족지원센터",
    "sigungu": "보령시",
    "type": "일반상담",
    "addr": "충청남도 보령시 한내로 45(동대동) (문화빌딩 2층)",
    "tel": "041-936-8506",
    "time": "월~금 09:00~18:00",
    "lang": "영어, 중국어, 일본어, 베트남어, 필리핀어, 우즈베크어, 네팔어",
    "detail": "상담┃한국어┃교육문화",
    "lat": 36.3463465,
    "lng": 126.6084663,
    "law": 0,
    "medical": 0,
    "consulting": 1,
    "edu": 0
  },
  {
    "index": 202,
    "name": "서산시다문화가족지원센터",
    "sigungu": "서산시",
    "type": "일반상담",
    "addr": "충청남도 서산시 율지6로 10, 2층",
    "tel": "041-664-2710",
    "time": "월~금 09:00~18:00",
    "lang": "중국어, 베트남어",
    "detail": "상담┃한국어┃교육문화",
    "lat": 36.78073381,
    "lng": 126.460347,
    "law": 0,
    "medical": 0,
    "consulting": 1,
    "edu": 0
  },
  {
    "index": 203,
    "name": "논산시다문화가족지원센터",
    "sigungu": "논산시",
    "type": "일반상담",
    "addr": "충청남도 논산시 관촉로 277번길 23-13(3층)",
    "tel": "041-733-7860",
    "time": "월~금 09:00~18:00",
    "lang": "베트남어, 러시아어, 필리핀어",
    "detail": "상담┃한국어┃교육문화",
    "lat": 36.2027087,
    "lng": 127.0906904,
    "law": 0,
    "medical": 0,
    "consulting": 1,
    "edu": 0
  },
  {
    "index": 204,
    "name": "계룡시다문화가족지원센터",
    "sigungu": "계룡시",
    "type": "일반상담",
    "addr": "충청남도 계룡시 엄사면 엄사중앙로 94 4층",
    "tel": "042-551-1133",
    "time": "월~금 09:00~18:00",
    "lang": "",
    "detail": "상담┃한국어┃교육문화",
    "lat": 36.28891519,
    "lng": 127.2422698,
    "law": 0,
    "medical": 0,
    "consulting": 1,
    "edu": 0
  },
  {
    "index": 205,
    "name": "금산군다문화가족지원센터",
    "sigungu": "금산군",
    "type": "일반상담",
    "addr": "충청남도 금산군 금산읍 군청5길 35",
    "tel": "041-750-3990",
    "time": "월~금 09:00~18:00",
    "lang": "베트남어",
    "detail": "상담┃한국어┃교육문화",
    "lat": 36.1094557,
    "lng": 127.4877028,
    "law": 0,
    "medical": 0,
    "consulting": 1,
    "edu": 0
  },
  {
    "index": 206,
    "name": "부여군다문화가족지원센터",
    "sigungu": "부여군",
    "type": "일반상담",
    "addr": "충청남도 부여군 부여읍 나성북로 17",
    "tel": "041-830-2900",
    "time": "월~금 09:00~18:00",
    "lang": "",
    "detail": "상담┃한국어┃교육문화",
    "lat": 36.28522862,
    "lng": 126.9081857,
    "law": 0,
    "medical": 0,
    "consulting": 1,
    "edu": 0
  },
  {
    "index": 207,
    "name": "서천군다문화가족지원센터",
    "sigungu": "서천군",
    "type": "일반상담",
    "addr": "충청남도 서천군 서천읍 서천로 38 2층",
    "tel": "041-953-2911",
    "time": "월~금 09:00~18:00",
    "lang": "",
    "detail": "상담┃한국어┃교육문화",
    "lat": 36.07597732,
    "lng": 126.6954703,
    "law": 0,
    "medical": 0,
    "consulting": 1,
    "edu": 0
  },
  {
    "index": 208,
    "name": "청양군다문화가족지원센터",
    "sigungu": "청양군",
    "type": "일반상담",
    "addr": "충청남도 청양군 청양읍 칠갑산로9길 32",
    "tel": "041-944-2333",
    "time": "월~금 09:00~18:00",
    "lang": "중국어, 일본어, 베트남어",
    "detail": "상담┃한국어┃교육문화",
    "lat": 36.4533356,
    "lng": 126.8066593,
    "law": 0,
    "medical": 0,
    "consulting": 1,
    "edu": 0
  },
  {
    "index": 209,
    "name": "홍성군다문화가족지원센터",
    "sigungu": "홍성군",
    "type": "일반상담",
    "addr": "충청남도 홍성군 홍성읍 조양로 75번길 17",
    "tel": "041-634-7432",
    "time": "월~금 09:00~18:00",
    "lang": "",
    "detail": "상담┃한국어┃교육문화",
    "lat": 36.60176164,
    "lng": 126.6584389,
    "law": 0,
    "medical": 0,
    "consulting": 1,
    "edu": 0
  },
  {
    "index": 210,
    "name": "예산군다문화가족지원센터",
    "sigungu": "예산군",
    "type": "일반상담",
    "addr": "충청남도 예산군 예산읍 산성공원2길 15 2층",
    "tel": "041-339-8381",
    "time": "월~금 09:00~18:00",
    "lang": "",
    "detail": "상담┃한국어┃교육문화",
    "lat": 36.69227765,
    "lng": 126.8338845,
    "law": 0,
    "medical": 0,
    "consulting": 1,
    "edu": 0
  },
  {
    "index": 211,
    "name": "태안군다문화가족지원센터",
    "sigungu": "태안군",
    "type": "일반상담",
    "addr": "충청남도 태안군 태안읍 후곡로 83 여성회관",
    "tel": "041-670-2396",
    "time": "월~금 09:00~18:00",
    "lang": "",
    "detail": "상담┃한국어┃교육문화",
    "lat": 36.7458984,
    "lng": 126.3019006,
    "law": 0,
    "medical": 0,
    "consulting": 1,
    "edu": 0
  },
  {
    "index": 212,
    "name": "당진시다문화가족지원센터",
    "sigungu": "당진시",
    "type": "일반상담",
    "addr": "충청남도 당진시 시청1로 38(수청동) 4층",
    "tel": "041-360-3160",
    "time": "월~금 09:00~18:00",
    "lang": "",
    "detail": "상담┃한국어┃교육문화",
    "lat": 36.89162477,
    "lng": 126.6434562,
    "law": 0,
    "medical": 0,
    "consulting": 1,
    "edu": 0
  },
  {
    "index": 213,
    "name": "청주시다문화가족지원센터",
    "sigungu": "청주시",
    "type": "일반상담",
    "addr": "충청북도 청주시 상당구 남일면 단재로 480상당보건소 내 2층",
    "tel": "043-293-8887",
    "time": "월~금 09:00~18:00",
    "lang": "중국어, 베트남어",
    "detail": "상담┃한국어┃교육문화",
    "lat": 36.58826574,
    "lng": 127.5059401,
    "law": 0,
    "medical": 0,
    "consulting": 1,
    "edu": 0
  },
  {
    "index": 214,
    "name": "청주시건강가정다문화가족지원센터",
    "sigungu": "청주시",
    "type": "일반상담",
    "addr": "충청북도 청주시 서원구 청남로 2156(모충동)",
    "tel": "043-298-8830",
    "time": "월~금 09:00~18:00",
    "lang": "중국어, 베트남어, 몽골어",
    "detail": "상담┃한국어┃교육문화",
    "lat": 36.62429586,
    "lng": 127.4888471,
    "law": 0,
    "medical": 0,
    "consulting": 1,
    "edu": 0
  },
  {
    "index": 215,
    "name": "충주시다문화가족지원센터",
    "sigungu": "충주시",
    "type": "일반상담",
    "addr": "충청북도 충주시 봉방 9길 12",
    "tel": "043-856-2253",
    "time": "월~금 09:00~18:00",
    "lang": "중국어, 베트남어, 캄보디아어",
    "detail": "상담┃한국어┃교육문화",
    "lat": 36.97437862,
    "lng": 127.9163256,
    "law": 0,
    "medical": 0,
    "consulting": 1,
    "edu": 0
  },
  {
    "index": 216,
    "name": "제천시다문화가족지원센터",
    "sigungu": "제천시",
    "type": "일반상담",
    "addr": "충청북도 제천시 명륜로 13길 3제천가톨릭복지관 2층",
    "tel": "043-643-0050",
    "time": "월~금 09:00~18:00",
    "lang": "중국어, 베트남어",
    "detail": "상담┃한국어┃교육문화",
    "lat": 37.14153233,
    "lng": 128.2114681,
    "law": 0,
    "medical": 0,
    "consulting": 1,
    "edu": 0
  },
  {
    "index": 217,
    "name": "보은군다문화가족지원센터",
    "sigungu": "보은군",
    "type": "일반상담",
    "addr": "충청북도 보은군 보은읍 남부로 4515, 2층(거성상가)",
    "tel": "043-544-5422",
    "time": "월~금 09:00~18:00",
    "lang": "베트남어",
    "detail": "상담┃한국어┃교육문화",
    "lat": 36.48592561,
    "lng": 127.7210159,
    "law": 0,
    "medical": 0,
    "consulting": 1,
    "edu": 0
  },
  {
    "index": 218,
    "name": "옥천군다문화가족지원센터",
    "sigungu": "옥천군",
    "type": "일반상담",
    "addr": "충청북도 옥천군 옥천읍 중앙로 126 다목적회관2층",
    "tel": "043-733-1915",
    "time": "월~금 09:00~18:00",
    "lang": "영어, 중국어, 베트남어, 필리핀어",
    "detail": "상담┃한국어┃교육문화",
    "lat": 36.30749138,
    "lng": 127.5736776,
    "law": 0,
    "medical": 0,
    "consulting": 1,
    "edu": 0
  },
  {
    "index": 219,
    "name": "영동군다문화가족지원센터",
    "sigungu": "영동군",
    "type": "일반상담",
    "addr": "충청북도 영동군 영동읍 성안길 8",
    "tel": "043-745-8489",
    "time": "월~금 09:00~18:00",
    "lang": "영어, 중국어, 베트남어, 필리핀어, 캄보디아어, 태국어",
    "detail": "상담┃한국어┃교육문화",
    "lat": 36.17638295,
    "lng": 127.7714256,
    "law": 0,
    "medical": 0,
    "consulting": 1,
    "edu": 0
  },
  {
    "index": 220,
    "name": "증평군다문화가족지원센터",
    "sigungu": "증평군",
    "type": "일반상담",
    "addr": "충청북도 증평군 증평읍 문화로 75-1",
    "tel": "043-835-3572",
    "time": "월~금 09:00~18:00",
    "lang": "",
    "detail": "상담┃한국어┃교육문화",
    "lat": 36.7864853,
    "lng": 127.5878697,
    "law": 0,
    "medical": 0,
    "consulting": 1,
    "edu": 0
  },
  {
    "index": 221,
    "name": "진천군다문화가족지원센터",
    "sigungu": "진천군",
    "type": "일반상담",
    "addr": "충청북도 진천군 진천읍 중앙북1길 11-10 생거진천종합사회복지관 2층",
    "tel": "043-537-5431",
    "time": "월~금 09:00~18:00",
    "lang": "",
    "detail": "상담┃한국어┃교육문화",
    "lat": 36.86107039,
    "lng": 127.439435,
    "law": 0,
    "medical": 0,
    "consulting": 1,
    "edu": 0
  },
  {
    "index": 222,
    "name": "괴산군다문화가족지원센터",
    "sigungu": "괴산군",
    "type": "일반상담",
    "addr": "충청북도 괴산군 괴산읍 금산길 3",
    "tel": "043-832-1078",
    "time": "월~금 09:00~18:00",
    "lang": "",
    "detail": "상담┃한국어┃교육문화",
    "lat": 36.80770022,
    "lng": 127.7901104,
    "law": 0,
    "medical": 0,
    "consulting": 1,
    "edu": 0
  },
  {
    "index": 223,
    "name": "음성군다문화가족지원센터",
    "sigungu": "음성군",
    "type": "일반상담",
    "addr": "충청북도 음성군 음성읍 음성천서길 103",
    "tel": "043-873-8731",
    "time": "월~금 09:00~18:00",
    "lang": "",
    "detail": "상담┃한국어┃교육문화",
    "lat": 36.93144667,
    "lng": 127.6919669,
    "law": 0,
    "medical": 0,
    "consulting": 1,
    "edu": 0
  },
  {
    "index": 224,
    "name": "단양군다문화가족지원센터",
    "sigungu": "단양군",
    "type": "일반상담",
    "addr": "충청북도 단양군 단양읍 별곡12길 5 2층",
    "tel": "043-421-6200",
    "time": "월~금 09:00~18:00",
    "lang": "중국어, 베트남어",
    "detail": "상담┃한국어┃교육문화",
    "lat": 36.9876499,
    "lng": 128.370169,
    "law": 0,
    "medical": 0,
    "consulting": 1,
    "edu": 0
  }
]
