[
  {
    "sido": "경기도",
    "sigungu": "가평군",
    "name": "춘천고용복지플러스센터",
    "addr": "강원도 춘천시 퇴계농공로 9",
    "lat": 37.85234472,
    "lng": 127.7451982,
    "tel": "033-250-1900",
    "url": "http://www.workplus.go.kr/index.do"
  },
  {
    "sido": "경기도",
    "sigungu": "고양시",
    "name": "고양고용복지플러스센터",
    "addr": "경기도 고양시 일산동구 고봉로 32-16",
    "lat": 37.6641294,
    "lng": 126.7659067,
    "tel": "031-920-3937",
    "url": "http://www.workplus.go.kr/index.do"
  },
  {
    "sido": "경기도",
    "sigungu": "과천시",
    "name": "의왕고용복지플러스센터",
    "addr": "경기도 의왕시 안양판교로 89, 1층",
    "lat": 37.3960786,
    "lng": 126.9843385,
    "tel": "031-463-7460",
    "url": "http://www.workplus.go.kr/index.do"
  },
  {
    "sido": "경기도",
    "sigungu": "광명시",
    "name": "광명고용복지플러스센터",
    "addr": "경기도 광명시 시청로 15",
    "lat": 37.4782684,
    "lng": 126.8634848,
    "tel": "02-2680-1500",
    "url": "http://www.workplus.go.kr/index.do"
  },
  {
    "sido": "경기도",
    "sigungu": "광주시",
    "name": "경기광주고용복지플러스센터",
    "addr": "경기도 광주시 광주대로 62",
    "lat": 37.4121162,
    "lng": 127.2607032,
    "tel": "031-799-2760",
    "url": "http://www.workplus.go.kr/index.do"
  },
  {
    "sido": "경기도",
    "sigungu": "구리시",
    "name": "구리고용복지플러스센터",
    "addr": "경기도 구리시 건원대로 44",
    "lat": 37.6050036,
    "lng": 127.1402049,
    "tel": "031-560-5800",
    "url": "http://www.workplus.go.kr/index.do"
  },
  {
    "sido": "경기도",
    "sigungu": "군포시",
    "name": "안양고용복지플러스센터",
    "addr": "경기도 안양시 만안구 안양로 303",
    "lat": 37.3987455,
    "lng": 126.9207325,
    "tel": "031-463-0700",
    "url": "http://www.workplus.go.kr/index.do"
  },
  {
    "sido": "경기도",
    "sigungu": "김포시",
    "name": "김포고용복지플러스센터",
    "addr": "경기도 김포시 김포한강4로 125",
    "lat": 37.6446267,
    "lng": 126.6670294,
    "tel": "031-999-0900",
    "url": "http://www.workplus.go.kr/index.do"
  },
  {
    "sido": "경기도",
    "sigungu": "남양주시",
    "name": "남양주고용복지플러스센터",
    "addr": "경기도 남양주시 경춘로 953",
    "lat": 37.6335837,
    "lng": 127.207699,
    "tel": "031-560-1919",
    "url": "http://www.workplus.go.kr/index.do"
  },
  {
    "sido": "경기도",
    "sigungu": "동두천시",
    "name": "동두천고용복지플러스센터",
    "addr": "경기도 동두천시 삼육사로 984",
    "lat": 37.8987181,
    "lng": 127.0590132,
    "tel": "031-860-1700",
    "url": "http://www.workplus.go.kr/index.do"
  },
  {
    "sido": "경기도",
    "sigungu": "부천시",
    "name": "부천고용복지플러스센터",
    "addr": "경기도 부천시 길주로 351",
    "lat": 37.5030645,
    "lng": 126.7813788,
    "tel": "032-320-8900",
    "url": "http://www.workplus.go.kr/index.do"
  },
  {
    "sido": "경기도",
    "sigungu": "성남시",
    "name": "성남고용복지플러스센터",
    "addr": "경기도 성남시 분당구 성남대로 146",
    "lat": 37.348864,
    "lng": 127.1094903,
    "tel": "031-739-3177",
    "url": "http://www.workplus.go.kr/index.do"
  },
  {
    "sido": "경기도",
    "sigungu": "수원시",
    "name": "수원고용복지플러스센터",
    "addr": "경기도 수원시 팔달구 경수대로 584",
    "lat": 37.2776288,
    "lng": 127.0313863,
    "tel": "031-231-7864",
    "url": "http://www.workplus.go.kr/index.do"
  },
  {
    "sido": "경기도",
    "sigungu": "시흥시",
    "name": "시흥고용복지플러스센터",
    "addr": "경기도 시흥시 마유로418번길 18",
    "lat": 37.3510861,
    "lng": 126.7428655,
    "tel": "031-496-1900",
    "url": "http://www.workplus.go.kr/index.do"
  },
  {
    "sido": "경기도",
    "sigungu": "안산시",
    "name": "안산고용복지플러스센터",
    "addr": "경기도 안산시 단원구 원고잔로 11",
    "lat": 37.3185076,
    "lng": 126.8273297,
    "tel": "031-412-6600",
    "url": "http://www.workplus.go.kr/index.do"
  },
  {
    "sido": "경기도",
    "sigungu": "안성시",
    "name": "안성고용복지플러스센터",
    "addr": "경기도 안성시 안성맞춤대로 984",
    "lat": 37.0012465,
    "lng": 127.2677352,
    "tel": "031-686-1705",
    "url": "http://www.workplus.go.kr/index.do"
  },
  {
    "sido": "경기도",
    "sigungu": "안양시",
    "name": "안양고용복지플러스센터",
    "addr": "경기도 안양시 만안구 안양로 303",
    "lat": 37.3987455,
    "lng": 126.9207325,
    "tel": "031-463-0700",
    "url": "http://www.workplus.go.kr/index.do"
  },
  {
    "sido": "경기도",
    "sigungu": "양주시",
    "name": "양주고용복지플러스센터",
    "addr": "경기도 양주시 부흥로 1533",
    "lat": 37.7849261,
    "lng": 127.0452932,
    "tel": "031-849-2300",
    "url": "http://www.workplus.go.kr/index.do"
  },
  {
    "sido": "경기도",
    "sigungu": "양평군",
    "name": "경기광주고용복지플러스센터",
    "addr": "경기도 광주시 광주대로 62",
    "lat": 37.4121162,
    "lng": 127.2607032,
    "tel": "031-799-2760",
    "url": "http://www.workplus.go.kr/index.do"
  },
  {
    "sido": "경기도",
    "sigungu": "여주시",
    "name": "이천고용복지플러스센터",
    "addr": "경기도 이천시 이섭대천로 1309",
    "lat": 37.2863225,
    "lng": 127.4495188,
    "tel": "031-644-3820",
    "url": "http://www.workplus.go.kr/index.do"
  },
  {
    "sido": "경기도",
    "sigungu": "연천군",
    "name": "동두천고용복지플러스센터",
    "addr": "경기도 동두천시 삼육사로 984",
    "lat": 37.8987181,
    "lng": 127.0590132,
    "tel": "031-860-1700",
    "url": "http://www.workplus.go.kr/index.do"
  },
  {
    "sido": "경기도",
    "sigungu": "오산시",
    "name": "오산고용복지플러스센터",
    "addr": "경기도 오산시 경기동로 51",
    "lat": 37.1590328,
    "lng": 127.076812,
    "tel": "031-8024-9805",
    "url": "http://www.workplus.go.kr/index.do"
  },
  {
    "sido": "경기도",
    "sigungu": "용인시",
    "name": "용인고용복지플러스센터",
    "addr": "경기도 용인시 기흥구 강남로 3",
    "lat": 37.2710176,
    "lng": 127.1261005,
    "tel": "031-289-2210",
    "url": "http://www.workplus.go.kr/index.do"
  },
  {
    "sido": "경기도",
    "sigungu": "의왕시",
    "name": "의왕고용복지플러스센터",
    "addr": "경기도 의왕시 안양판교로 89, 1층",
    "lat": 37.3960786,
    "lng": 126.9843385,
    "tel": "031-463-7460",
    "url": "http://www.workplus.go.kr/index.do"
  },
  {
    "sido": "경기도",
    "sigungu": "의정부시",
    "name": "의정부고용복지플러스센터",
    "addr": "경기도 의정부시 시민로 49",
    "lat": 37.7386548,
    "lng": 127.0404338,
    "tel": "031-828-0900",
    "url": "http://www.workplus.go.kr/index.do"
  },
  {
    "sido": "경기도",
    "sigungu": "이천시",
    "name": "이천고용복지플러스센터",
    "addr": "경기도 이천시 이섭대천로 1309",
    "lat": 37.2863225,
    "lng": 127.4495188,
    "tel": "031-644-3820",
    "url": "http://www.workplus.go.kr/index.do"
  },
  {
    "sido": "경기도",
    "sigungu": "파주시",
    "name": "파주고용복지플러스센터",
    "addr": "경기도 파주시 중앙로 328",
    "lat": 37.7648378,
    "lng": 126.7746763,
    "tel": "031-860-0401",
    "url": "http://www.workplus.go.kr/index.do"
  },
  {
    "sido": "경기도",
    "sigungu": "평택시",
    "name": "평택고용복지플러스센터",
    "addr": "경기도 평택시 경기대로 1194",
    "lat": 37.0531771,
    "lng": 127.0604193,
    "tel": "031-646-1205",
    "url": "http://www.workplus.go.kr/index.do"
  },
  {
    "sido": "경기도",
    "sigungu": "포천시",
    "name": "의정부고용복지플러스센터",
    "addr": "경기도 의정부시 시민로 49",
    "lat": 37.7386548,
    "lng": 127.0404338,
    "tel": "031-828-0900",
    "url": "http://www.workplus.go.kr/index.do"
  },
  {
    "sido": "경기도",
    "sigungu": "하남시",
    "name": "하남고용복지플러스센터",
    "addr": "경기도 하남시 미사강변대로 52",
    "lat": 37.554648,
    "lng": 127.1864557,
    "tel": "031-730-7000",
    "url": "http://www.workplus.go.kr/index.do"
  },
  {
    "sido": "경기도",
    "sigungu": "화성시",
    "name": "화성고용복지플러스센터",
    "addr": "경기도 화성시 봉담읍 동화길 85",
    "lat": 37.2168582,
    "lng": 126.9582895,
    "tel": "031-290-0800",
    "url": "http://www.workplus.go.kr/index.do"
  },
  {
    "sido": "서울특별시",
    "sigungu": "강남구",
    "name": "서울강남고용복지플러스센터",
    "addr": "서울특별시 강남구 테헤란로 410",
    "lat": 37.50455591,
    "lng": 127.0507294,
    "tel": "02-3468-4794",
    "url": "http://www.workplus.go.kr/index.do"
  },
  {
    "sido": "서울특별시",
    "sigungu": "강동구",
    "name": "서울동부고용복지플러스센터",
    "addr": "서울특별시 송파구 중대로 135",
    "lat": 37.49509597,
    "lng": 127.122427,
    "tel": "02-2142-8924",
    "url": "http://www.workplus.go.kr/index.do"
  },
  {
    "sido": "서울특별시",
    "sigungu": "강북구",
    "name": "서울북부고용센터",
    "addr": "서울특별시 노원구 노해로 450",
    "lat": 37.65344388,
    "lng": 127.0581846,
    "tel": "02-2171-1700",
    "url": "http://www.workplus.go.kr/index.do"
  },
  {
    "sido": "서울특별시",
    "sigungu": "강서구",
    "name": "서울강서고용복지플러스센터",
    "addr": "서울특별시 강서구 양천로57길 10-10",
    "lat": 37.56284398,
    "lng": 126.8525983,
    "tel": "02-2063-6700",
    "url": "http://www.workplus.go.kr/index.do"
  },
  {
    "sido": "서울특별시",
    "sigungu": "관악구",
    "name": "서울관악고용복지플러스센터",
    "addr": "서울특별시 구로구 디지털로34길 27",
    "lat": 37.48547262,
    "lng": 126.8982231,
    "tel": "02-3282-9200",
    "url": "http://www.workplus.go.kr/index.do"
  },
  {
    "sido": "서울특별시",
    "sigungu": "광진구",
    "name": "서울동부고용복지플러스센터",
    "addr": "서울특별시 송파구 중대로 135",
    "lat": 37.49509597,
    "lng": 127.122427,
    "tel": "02-2142-8924",
    "url": "http://www.workplus.go.kr/index.do"
  },
  {
    "sido": "서울특별시",
    "sigungu": "구로구",
    "name": "서울관악고용복지플러스센터",
    "addr": "서울특별시 구로구 디지털로34길 27",
    "lat": 37.48547262,
    "lng": 126.8982231,
    "tel": "02-3282-9200",
    "url": "http://www.workplus.go.kr/index.do"
  },
  {
    "sido": "서울특별시",
    "sigungu": "금천구",
    "name": "서울관악고용복지플러스센터",
    "addr": "서울특별시 구로구 디지털로34길 27",
    "lat": 37.48547262,
    "lng": 126.8982231,
    "tel": "02-3282-9200",
    "url": "http://www.workplus.go.kr/index.do"
  },
  {
    "sido": "서울특별시",
    "sigungu": "노원구",
    "name": "서울북부고용센터",
    "addr": "서울특별시 노원구 노해로 450",
    "lat": 37.65344388,
    "lng": 127.0581846,
    "tel": "02-2171-1700",
    "url": "http://www.workplus.go.kr/index.do"
  },
  {
    "sido": "서울특별시",
    "sigungu": "도봉구",
    "name": "서울북부고용센터",
    "addr": "서울특별시 노원구 노해로 450",
    "lat": 37.65344388,
    "lng": 127.0581846,
    "tel": "02-2171-1700",
    "url": "http://www.workplus.go.kr/index.do"
  },
  {
    "sido": "서울특별시",
    "sigungu": "동대문구",
    "name": "서울고용복지플러스센터",
    "addr": "서울특별시 중구 삼일대로 363",
    "lat": 37.56715654,
    "lng": 126.9870523,
    "tel": "02-2004-7301",
    "url": "http://www.workplus.go.kr/index.do"
  },
  {
    "sido": "서울특별시",
    "sigungu": "동작구",
    "name": "서울관악고용복지플러스센터",
    "addr": "서울특별시 구로구 디지털로34길 27",
    "lat": 37.48547262,
    "lng": 126.8982231,
    "tel": "02-3282-9200",
    "url": "http://www.workplus.go.kr/index.do"
  },
  {
    "sido": "서울특별시",
    "sigungu": "마포구",
    "name": "서울서부고용복지플러스센터",
    "addr": "서울특별시 마포구 마포대로 63-8",
    "lat": 37.54225971,
    "lng": 126.9478155,
    "tel": "02-2077-6000",
    "url": "http://www.workplus.go.kr/index.do"
  },
  {
    "sido": "서울특별시",
    "sigungu": "서대문구",
    "name": "서울서부고용복지플러스센터",
    "addr": "서울특별시 마포구 마포대로 63-8",
    "lat": 37.54225971,
    "lng": 126.9478155,
    "tel": "02-2077-6000",
    "url": "http://www.workplus.go.kr/index.do"
  },
  {
    "sido": "서울특별시",
    "sigungu": "서초구",
    "name": "서울서초고용센터",
    "addr": "서울특별시 서초구 반포대로 43",
    "lat": 37.48422977,
    "lng": 127.0108415,
    "tel": "02-580-4900",
    "url": "http://www.workplus.go.kr/index.do"
  },
  {
    "sido": "서울특별시",
    "sigungu": "성동구",
    "name": "서울동부고용복지플러스센터",
    "addr": "서울특별시 송파구 중대로 135",
    "lat": 37.49509597,
    "lng": 127.122427,
    "tel": "02-2142-8924",
    "url": "http://www.workplus.go.kr/index.do"
  },
  {
    "sido": "서울특별시",
    "sigungu": "성북구",
    "name": "서울북부고용센터",
    "addr": "서울특별시 노원구 노해로 450",
    "lat": 37.65344388,
    "lng": 127.0581846,
    "tel": "02-2171-1700",
    "url": "http://www.workplus.go.kr/index.do"
  },
  {
    "sido": "서울특별시",
    "sigungu": "송파구",
    "name": "서울동부고용복지플러스센터",
    "addr": "서울특별시 송파구 중대로 135",
    "lat": 37.49509597,
    "lng": 127.122427,
    "tel": "02-2142-8924",
    "url": "http://www.workplus.go.kr/index.do"
  },
  {
    "sido": "서울특별시",
    "sigungu": "양천구",
    "name": "서울남부고용복지플러스센터",
    "addr": "서울특별시 영등포구 선유로 120",
    "lat": 37.52475782,
    "lng": 126.8909919,
    "tel": "02-2639-2300",
    "url": "http://www.workplus.go.kr/index.do"
  },
  {
    "sido": "서울특별시",
    "sigungu": "영등포구",
    "name": "서울남부고용복지플러스센터",
    "addr": "서울특별시 영등포구 선유로 120",
    "lat": 37.52475782,
    "lng": 126.8909919,
    "tel": "02-2639-2300",
    "url": "http://www.workplus.go.kr/index.do"
  },
  {
    "sido": "서울특별시",
    "sigungu": "용산구",
    "name": "서울서부고용복지플러스센터",
    "addr": "서울특별시 마포구 마포대로 63-8",
    "lat": 37.54225971,
    "lng": 126.9478155,
    "tel": "02-2077-6000",
    "url": "http://www.workplus.go.kr/index.do"
  },
  {
    "sido": "서울특별시",
    "sigungu": "은평구",
    "name": "서울서부고용복지플러스센터",
    "addr": "서울특별시 마포구 마포대로 63-8",
    "lat": 37.54225971,
    "lng": 126.9478155,
    "tel": "02-2077-6000",
    "url": "http://www.workplus.go.kr/index.do"
  },
  {
    "sido": "서울특별시",
    "sigungu": "종로구",
    "name": "서울고용복지플러스센터",
    "addr": "서울특별시 중구 삼일대로 363",
    "lat": 37.56715654,
    "lng": 126.9870523,
    "tel": "02-2004-7301",
    "url": "http://www.workplus.go.kr/index.do"
  },
  {
    "sido": "서울특별시",
    "sigungu": "중구",
    "name": "서울고용복지플러스센터",
    "addr": "서울특별시 중구 삼일대로 363",
    "lat": 37.56715654,
    "lng": 126.9870523,
    "tel": "02-2004-7301",
    "url": "http://www.workplus.go.kr/index.do"
  },
  {
    "sido": "서울특별시",
    "sigungu": "중랑구",
    "name": "서울북부고용센터",
    "addr": "서울특별시 노원구 노해로 450",
    "lat": 37.65344388,
    "lng": 127.0581846,
    "tel": "02-2171-1700",
    "url": "http://www.workplus.go.kr/index.do"
  },
  {
    "sido": "인천광역시",
    "sigungu": "강화군",
    "name": "인천서부고용복지플러스센터",
    "addr": "인천광역시 서구 서곶로 299",
    "lat": 37.54431677,
    "lng": 126.6765036,
    "tel": "032-540-2001",
    "url": "http://www.workplus.go.kr/index.do"
  },
  {
    "sido": "인천광역시",
    "sigungu": "계양구",
    "name": "인천북부고용복지플러스센터",
    "addr": "인천광역시 계양구 장제로 804",
    "lat": 37.53948363,
    "lng": 126.7349606,
    "tel": "032-540-5641",
    "url": "http://www.workplus.go.kr/index.do"
  },
  {
    "sido": "인천광역시",
    "sigungu": "남동구",
    "name": "인천고용복지플러스센터",
    "addr": "인천광역시 남동구 문화로 131",
    "lat": 37.45067977,
    "lng": 126.6992885,
    "tel": "032-460-4701",
    "url": "http://www.workplus.go.kr/index.do"
  },
  {
    "sido": "인천광역시",
    "sigungu": "동구",
    "name": "인천고용복지플러스센터",
    "addr": "인천광역시 남동구 문화로 131",
    "lat": 37.45067977,
    "lng": 126.6992885,
    "tel": "032-460-4701",
    "url": "http://www.workplus.go.kr/index.do"
  },
  {
    "sido": "인천광역시",
    "sigungu": "미추홀구",
    "name": "인천고용복지플러스센터",
    "addr": "인천광역시 남동구 문화로 131",
    "lat": 37.45067977,
    "lng": 126.6992885,
    "tel": "032-460-4701",
    "url": "http://www.workplus.go.kr/index.do"
  },
  {
    "sido": "인천광역시",
    "sigungu": "부평구",
    "name": "인천북부고용복지플러스센터",
    "addr": "인천광역시 계양구 장제로 804",
    "lat": 37.53948363,
    "lng": 126.7349606,
    "tel": "032-540-5641",
    "url": "http://www.workplus.go.kr/index.do"
  },
  {
    "sido": "인천광역시",
    "sigungu": "서구",
    "name": "인천서부고용복지플러스센터",
    "addr": "인천광역시 서구 서곶로 299",
    "lat": 37.54431677,
    "lng": 126.6765036,
    "tel": "032-540-2001",
    "url": "http://www.workplus.go.kr/index.do"
  },
  {
    "sido": "인천광역시",
    "sigungu": "연수구",
    "name": "인천고용복지플러스센터",
    "addr": "인천광역시 남동구 문화로 131",
    "lat": 37.45067977,
    "lng": 126.6992885,
    "tel": "032-460-4701",
    "url": "http://www.workplus.go.kr/index.do"
  },
  {
    "sido": "인천광역시",
    "sigungu": "옹진군",
    "name": "인천고용복지플러스센터",
    "addr": "인천광역시 남동구 문화로 131",
    "lat": 37.45067977,
    "lng": 126.6992885,
    "tel": "032-460-4701",
    "url": "http://www.workplus.go.kr/index.do"
  },
  {
    "sido": "인천광역시",
    "sigungu": "중구",
    "name": "인천고용복지플러스센터",
    "addr": "인천광역시 남동구 문화로 131",
    "lat": 37.45067977,
    "lng": 126.6992885,
    "tel": "032-460-4701",
    "url": "http://www.workplus.go.kr/index.do"
  },
  {
    "sido": "광주광역시",
    "sigungu": "광산구",
    "name": "광주광산고용복지플러스센터",
    "addr": "광주광역시 광산구 하남대로 154",
    "lat": 35.1797125,
    "lng": 126.8103964,
    "tel": "062-960-3200",
    "url": "http://www.workplus.go.kr/index.do"
  },
  {
    "sido": "광주광역시",
    "sigungu": "남구",
    "name": "광주고용복지플러스센터",
    "addr": "광주광역시 북구 금남로 121",
    "lat": 35.15540208,
    "lng": 126.9081734,
    "tel": "062-609-8500",
    "url": "http://www.workplus.go.kr/index.do"
  },
  {
    "sido": "광주광역시",
    "sigungu": "동구",
    "name": "광주고용복지플러스센터",
    "addr": "광주광역시 북구 금남로 121",
    "lat": 35.15540208,
    "lng": 126.9081734,
    "tel": "062-609-8500",
    "url": "http://www.workplus.go.kr/index.do"
  },
  {
    "sido": "광주광역시",
    "sigungu": "북구",
    "name": "광주고용복지플러스센터",
    "addr": "광주광역시 북구 금남로 121",
    "lat": 35.15540208,
    "lng": 126.9081734,
    "tel": "062-609-8500",
    "url": "http://www.workplus.go.kr/index.do"
  },
  {
    "sido": "광주광역시",
    "sigungu": "서구",
    "name": "광주고용복지플러스센터",
    "addr": "광주광역시 북구 금남로 121",
    "lat": 35.15540208,
    "lng": 126.9081734,
    "tel": "062-609-8500",
    "url": "http://www.workplus.go.kr/index.do"
  },
  {
    "sido": "대구광역시",
    "sigungu": "남구",
    "name": "대구서부고용복지플러스센터",
    "addr": "대구광역시 서구 서대구로 9",
    "lat": 35.85877931,
    "lng": 128.5567188,
    "tel": "053-605-6500",
    "url": "http://www.workplus.go.kr/index.do"
  },
  {
    "sido": "대구광역시",
    "sigungu": "달서구",
    "name": "대구서부고용복지플러스센터",
    "addr": "대구광역시 서구 서대구로 9",
    "lat": 35.85877931,
    "lng": 128.5567188,
    "tel": "053-605-6500",
    "url": "http://www.workplus.go.kr/index.do"
  },
  {
    "sido": "대구광역시",
    "sigungu": "달성군",
    "name": "대구달성고용복지플러스센터",
    "addr": "대구광역시 달성군 논공읍 논공중앙로34길 1",
    "lat": 35.72969159,
    "lng": 128.4540414,
    "tel": "053-605-9510",
    "url": "http://www.workplus.go.kr/index.do"
  },
  {
    "sido": "대구광역시",
    "sigungu": "동구",
    "name": "대구동부고용복지플러스센터",
    "addr": "대구광역시 동구 아양로 22",
    "lat": 35.88143516,
    "lng": 128.6167503,
    "tel": "053-667-6900",
    "url": "http://www.workplus.go.kr/index.do"
  },
  {
    "sido": "대구광역시",
    "sigungu": "북구",
    "name": "대구강북고용복지플러스센터",
    "addr": "대구광역시 북구 칠곡중앙대로 318  다은빌딩",
    "lat": 35.92403332,
    "lng": 128.5473297,
    "tel": "053-606-8000",
    "url": "http://www.workplus.go.kr/index.do"
  },
  {
    "sido": "대구광역시",
    "sigungu": "서구",
    "name": "대구서부고용복지플러스센터",
    "addr": "대구광역시 서구 서대구로 9",
    "lat": 35.85877931,
    "lng": 128.5567188,
    "tel": "053-605-6500",
    "url": "http://www.workplus.go.kr/index.do"
  },
  {
    "sido": "대구광역시",
    "sigungu": "수성구",
    "name": "대구고용복지플러스센터",
    "addr": "대구광역시 수성구 동대구로 392",
    "lat": 35.86534882,
    "lng": 128.6274406,
    "tel": "053-667-6000",
    "url": "http://www.workplus.go.kr/index.do"
  },
  {
    "sido": "대구광역시",
    "sigungu": "중구",
    "name": "대구고용복지플러스센터",
    "addr": "대구광역시 수성구 동대구로 392",
    "lat": 35.86534882,
    "lng": 128.6274406,
    "tel": "053-667-6000",
    "url": "http://www.workplus.go.kr/index.do"
  },
  {
    "sido": "대전광역시",
    "sigungu": "대덕구",
    "name": "대전고용복지플러스센터",
    "addr": "대전 서구 탄방동 문정로 56",
    "lat": 36.34644984,
    "lng": 127.3855819,
    "tel": "042-480-6000",
    "url": "http://www.workplus.go.kr/index.do"
  },
  {
    "sido": "대전광역시",
    "sigungu": "동구",
    "name": "대전고용복지플러스센터",
    "addr": "대전 서구 탄방동 문정로 56",
    "lat": 36.34644984,
    "lng": 127.3855819,
    "tel": "042-480-6000",
    "url": "http://www.workplus.go.kr/index.do"
  },
  {
    "sido": "대전광역시",
    "sigungu": "서구",
    "name": "대전고용복지플러스센터",
    "addr": "대전 서구 탄방동 문정로 56",
    "lat": 36.34644984,
    "lng": 127.3855819,
    "tel": "042-480-6000",
    "url": "http://www.workplus.go.kr/index.do"
  },
  {
    "sido": "대전광역시",
    "sigungu": "유성구",
    "name": "대전고용복지플러스센터",
    "addr": "대전 서구 탄방동 문정로 56",
    "lat": 36.34644984,
    "lng": 127.3855819,
    "tel": "042-480-6000",
    "url": "http://www.workplus.go.kr/index.do"
  },
  {
    "sido": "대전광역시",
    "sigungu": "중구",
    "name": "대전고용복지플러스센터",
    "addr": "대전 서구 탄방동 문정로 56",
    "lat": 36.34644984,
    "lng": 127.3855819,
    "tel": "042-480-6000",
    "url": "http://www.workplus.go.kr/index.do"
  },
  {
    "sido": "부산광역시",
    "sigungu": "강서구",
    "name": "부산북부고용복지플러스센터",
    "addr": "부산광역시 북구 화명대로 9 고용센터빌딩1-5층",
    "lat": 35.23562808,
    "lng": 129.0093722,
    "tel": "051-330-9900",
    "url": "http://www.workplus.go.kr/index.do"
  },
  {
    "sido": "부산광역시",
    "sigungu": "금정구",
    "name": "부산동부고용복지플러스센터",
    "addr": "부산광역시 수영구 수영로 676",
    "lat": 35.16600435,
    "lng": 129.1151643,
    "tel": "051-760-7100",
    "url": "http://www.workplus.go.kr/index.do"
  },
  {
    "sido": "부산광역시",
    "sigungu": "기장군",
    "name": "부산동부고용복지플러스센터",
    "addr": "부산광역시 수영구 수영로 676",
    "lat": 35.16600435,
    "lng": 129.1151643,
    "tel": "051-760-7100",
    "url": "http://www.workplus.go.kr/index.do"
  },
  {
    "sido": "부산광역시",
    "sigungu": "남구",
    "name": "부산고용복지플러스센터",
    "addr": "부산광역시 부산진구 중앙대로 993",
    "lat": 35.1780179,
    "lng": 129.0746313,
    "tel": "051-860-1919",
    "url": "http://www.workplus.go.kr/index.do"
  },
  {
    "sido": "부산광역시",
    "sigungu": "동구",
    "name": "부산고용복지플러스센터",
    "addr": "부산광역시 부산진구 중앙대로 993",
    "lat": 35.1780179,
    "lng": 129.0746313,
    "tel": "051-860-1919",
    "url": "http://www.workplus.go.kr/index.do"
  },
  {
    "sido": "부산광역시",
    "sigungu": "동래구",
    "name": "부산동부고용복지플러스센터",
    "addr": "부산광역시 수영구 수영로 676",
    "lat": 35.16600435,
    "lng": 129.1151643,
    "tel": "051-760-7100",
    "url": "http://www.workplus.go.kr/index.do"
  },
  {
    "sido": "부산광역시",
    "sigungu": "부산진구",
    "name": "부산고용복지플러스센터",
    "addr": "부산광역시 부산진구 중앙대로 993",
    "lat": 35.1780179,
    "lng": 129.0746313,
    "tel": "051-860-1919",
    "url": "http://www.workplus.go.kr/index.do"
  },
  {
    "sido": "부산광역시",
    "sigungu": "북구",
    "name": "부산북부고용복지플러스센터",
    "addr": "부산광역시 북구 화명대로 9 고용센터빌딩1-5층",
    "lat": 35.23562808,
    "lng": 129.0093722,
    "tel": "051-330-9900",
    "url": "http://www.workplus.go.kr/index.do"
  },
  {
    "sido": "부산광역시",
    "sigungu": "사상구",
    "name": "부산북부고용복지플러스센터",
    "addr": "부산광역시 북구 화명대로 9 고용센터빌딩1-5층",
    "lat": 35.23562808,
    "lng": 129.0093722,
    "tel": "051-330-9900",
    "url": "http://www.workplus.go.kr/index.do"
  },
  {
    "sido": "부산광역시",
    "sigungu": "사하구",
    "name": "부산사하고용복지플러스센터",
    "addr": "부산 사하구 낙동남로 1427",
    "lat": 35.10663173,
    "lng": 128.967704,
    "tel": "051-520-4900",
    "url": "http://www.workplus.go.kr/index.do"
  },
  {
    "sido": "부산광역시",
    "sigungu": "서구",
    "name": "부산고용복지플러스센터",
    "addr": "부산광역시 부산진구 중앙대로 993",
    "lat": 35.1780179,
    "lng": 129.0746313,
    "tel": "051-860-1919",
    "url": "http://www.workplus.go.kr/index.do"
  },
  {
    "sido": "부산광역시",
    "sigungu": "수영구",
    "name": "부산동부고용복지플러스센터",
    "addr": "부산광역시 수영구 수영로 676",
    "lat": 35.16600435,
    "lng": 129.1151643,
    "tel": "051-760-7100",
    "url": "http://www.workplus.go.kr/index.do"
  },
  {
    "sido": "부산광역시",
    "sigungu": "연제구",
    "name": "부산고용복지플러스센터",
    "addr": "부산광역시 부산진구 중앙대로 993",
    "lat": 35.1780179,
    "lng": 129.0746313,
    "tel": "051-860-1919",
    "url": "http://www.workplus.go.kr/index.do"
  },
  {
    "sido": "부산광역시",
    "sigungu": "영도구",
    "name": "부산고용복지플러스센터",
    "addr": "부산광역시 부산진구 중앙대로 993",
    "lat": 35.1780179,
    "lng": 129.0746313,
    "tel": "051-860-1919",
    "url": "http://www.workplus.go.kr/index.do"
  },
  {
    "sido": "부산광역시",
    "sigungu": "중구",
    "name": "부산고용복지플러스센터",
    "addr": "부산광역시 부산진구 중앙대로 993",
    "lat": 35.1780179,
    "lng": 129.0746313,
    "tel": "051-860-1919",
    "url": "http://www.workplus.go.kr/index.do"
  },
  {
    "sido": "부산광역시",
    "sigungu": "해운대구",
    "name": "부산동부고용복지플러스센터",
    "addr": "부산광역시 수영구 수영로 676",
    "lat": 35.16600435,
    "lng": 129.1151643,
    "tel": "051-760-7100",
    "url": "http://www.workplus.go.kr/index.do"
  },
  {
    "sido": "울산광역시",
    "sigungu": "남구",
    "name": "울산고용복지플러스센터",
    "addr": "울산광역시 남구 화합로 106",
    "lat": 35.53433834,
    "lng": 129.3413202,
    "tel": "052-228-1919",
    "url": "http://www.workplus.go.kr/index.do"
  },
  {
    "sido": "울산광역시",
    "sigungu": "동구",
    "name": "울산고용복지플러스센터",
    "addr": "울산광역시 남구 화합로 106",
    "lat": 35.53433834,
    "lng": 129.3413202,
    "tel": "052-228-1919",
    "url": "http://www.workplus.go.kr/index.do"
  },
  {
    "sido": "울산광역시",
    "sigungu": "북구",
    "name": "울산고용복지플러스센터",
    "addr": "울산광역시 남구 화합로 106",
    "lat": 35.53433834,
    "lng": 129.3413202,
    "tel": "052-228-1919",
    "url": "http://www.workplus.go.kr/index.do"
  },
  {
    "sido": "울산광역시",
    "sigungu": "울주군",
    "name": "울산고용복지플러스센터",
    "addr": "울산광역시 남구 화합로 106",
    "lat": 35.53433834,
    "lng": 129.3413202,
    "tel": "052-228-1919",
    "url": "http://www.workplus.go.kr/index.do"
  },
  {
    "sido": "울산광역시",
    "sigungu": "중구",
    "name": "울산고용복지플러스센터",
    "addr": "울산광역시 남구 화합로 106",
    "lat": 35.53433834,
    "lng": 129.3413202,
    "tel": "052-228-1919",
    "url": "http://www.workplus.go.kr/index.do"
  },
  {
    "sido": "강원도",
    "sigungu": "철원군",
    "name": "동두천고용복지플러스센터",
    "addr": "경기 동두천시 삼육사로 984 서경토아 3층",
    "lat": 37.89881901,
    "lng": 127.0590903,
    "tel": "031-860-1700",
    "url": "http://www.workplus.go.kr/index.do"
  },
  {
    "sido": "강원도",
    "sigungu": "춘천시",
    "name": "춘천고용복지플러스센터",
    "addr": "강원도 춘천시 퇴계농공로 9 넥서스프라자빌딩 2-5층",
    "lat": 37.85234472,
    "lng": 127.7451982,
    "tel": "033-250-1900",
    "url": "http://www.workplus.go.kr/index.do"
  },
  {
    "sido": "강원도",
    "sigungu": "화천군",
    "name": "춘천고용복지플러스센터",
    "addr": "강원도 춘천시 퇴계농공로 9 넥서스프라자빌딩 2-5층",
    "lat": 37.85234472,
    "lng": 127.7451982,
    "tel": "033-250-1900",
    "url": "http://www.workplus.go.kr/index.do"
  },
  {
    "sido": "강원도",
    "sigungu": "홍천군",
    "name": "춘천고용복지플러스센터",
    "addr": "강원도 춘천시 퇴계농공로 9 넥서스프라자빌딩 2-5층",
    "lat": 37.85234472,
    "lng": 127.7451982,
    "tel": "033-250-1900",
    "url": "http://www.workplus.go.kr/index.do"
  },
  {
    "sido": "강원도",
    "sigungu": "양구군",
    "name": "춘천고용복지플러스센터",
    "addr": "강원도 춘천시 퇴계농공로 9 넥서스프라자빌딩 2-5층",
    "lat": 37.85234472,
    "lng": 127.7451982,
    "tel": "033-250-1900",
    "url": "http://www.workplus.go.kr/index.do"
  },
  {
    "sido": "강원도",
    "sigungu": "인제군",
    "name": "춘천고용복지플러스센터",
    "addr": "강원도 춘천시 퇴계농공로 9 넥서스프라자빌딩 2-5층",
    "lat": 37.85234472,
    "lng": 127.7451982,
    "tel": "033-250-1900",
    "url": "http://www.workplus.go.kr/index.do"
  },
  {
    "sido": "강원도",
    "sigungu": "강릉시",
    "name": "강릉고용복지플러스센터",
    "addr": "강원도 강릉시 강릉대로 176 신협빌딩",
    "lat": 37.75719762,
    "lng": 128.889984,
    "tel": "033-610-1919",
    "url": "http://www.workplus.go.kr/index.do"
  },
  {
    "sido": "강원도",
    "sigungu": "동해시",
    "name": "강릉고용복지플러스센터",
    "addr": "강원도 강릉시 강릉대로 176 신협빌딩",
    "lat": 37.75719762,
    "lng": 128.889984,
    "tel": "033-610-1919",
    "url": "http://www.workplus.go.kr/index.do"
  },
  {
    "sido": "강원도",
    "sigungu": "속초시",
    "name": "속초고용복지플러스센터",
    "addr": "강원도 속초시 동해대로 4178 엠클리닉센터 3층",
    "lat": 38.19236267,
    "lng": 128.5792387,
    "tel": "033-630-1919",
    "url": "http://www.workplus.go.kr/index.do"
  },
  {
    "sido": "강원도",
    "sigungu": "고성군",
    "name": "속초고용복지플러스센터",
    "addr": "강원도 속초시 동해대로 4178 엠클리닉센터 3층",
    "lat": 38.19236267,
    "lng": 128.5792387,
    "tel": "033-630-1919",
    "url": "http://www.workplus.go.kr/index.do"
  },
  {
    "sido": "강원도",
    "sigungu": "양양군",
    "name": "속초고용복지플러스센터",
    "addr": "강원도 속초시 동해대로 4178 엠클리닉센터 3층",
    "lat": 38.19236267,
    "lng": 128.5792387,
    "tel": "033-630-1919",
    "url": "http://www.workplus.go.kr/index.do"
  },
  {
    "sido": "강원도",
    "sigungu": "원주시",
    "name": "원주고용복지플러스센터",
    "addr": "강원도 원주시 서원대로 383 한신프라자 2, 3층",
    "lat": 37.33199202,
    "lng": 127.9485684,
    "tel": "033-769-0900",
    "url": "http://www.workplus.go.kr/index.do"
  },
  {
    "sido": "강원도",
    "sigungu": "횡성군",
    "name": "태백고용복지플러스센터",
    "addr": "강원도 태백시 번영로길 341",
    "lat": 37.1638086,
    "lng": 128.9790879,
    "tel": "033-552-8605",
    "url": "http://www.workplus.go.kr/index.do"
  },
  {
    "sido": "강원도",
    "sigungu": "태백시",
    "name": "삼척고용복지플러스센터",
    "addr": "강원도 삼척시 중앙로 214 현진빌딩 4층",
    "lat": 37.44217173,
    "lng": 129.1681788,
    "tel": "033-570-1900",
    "url": "http://www.workplus.go.kr/index.do"
  },
  {
    "sido": "강원도",
    "sigungu": "삼척시",
    "name": "삼척고용복지플러스센터",
    "addr": "강원도 삼척시 중앙로 214 현진빌딩 4층",
    "lat": 37.44217173,
    "lng": 129.1681788,
    "tel": "033-570-1900",
    "url": "http://www.workplus.go.kr/index.do"
  },
  {
    "sido": "강원도",
    "sigungu": "영월군",
    "name": "영월고용복지플러스센터",
    "addr": "강원도 영월군 영월읍 단종로 8",
    "lat": 37.18415048,
    "lng": 128.4685375,
    "tel": "033-371-6260",
    "url": "http://www.workplus.go.kr/index.do"
  },
  {
    "sido": "강원도",
    "sigungu": "정선군",
    "name": "영월고용복지플러스센터",
    "addr": "강원도 영월군 영월읍 단종로 8",
    "lat": 37.18415048,
    "lng": 128.4685375,
    "tel": "033-371-6260",
    "url": "http://www.workplus.go.kr/index.do"
  },
  {
    "sido": "강원도",
    "sigungu": "평창군",
    "name": "영월고용복지플러스센터",
    "addr": "강원도 영월군 영월읍 단종로 8",
    "lat": 37.18415048,
    "lng": 128.4685375,
    "tel": "033-371-6260",
    "url": "http://www.workplus.go.kr/index.do"
  },
  {
    "sido": "경상남도",
    "sigungu": "창원시",
    "name": "창원고용복지플러스센터",
    "addr": "경상남도 창원시 상남동 1~43 마디미서로 60 고용센터빌딩",
    "lat": 35.2203899,
    "lng": 128.6783308,
    "tel": "055-239-0900",
    "url": "http://www.workplus.go.kr/index.do"
  },
  {
    "sido": "경상남도",
    "sigungu": "함안군",
    "name": "마산고용복지플러스센터",
    "addr": "경상남도 창원시 마산회원구 3·15대로 628 무학빌딩 3~5층",
    "lat": 35.22925094,
    "lng": 128.5760021,
    "tel": "055-259-1500",
    "url": "http://www.workplus.go.kr/index.do"
  },
  {
    "sido": "경상남도",
    "sigungu": "의령군",
    "name": "마산고용복지플러스센터",
    "addr": "경상남도 창원시 마산회원구 3·15대로 628 무학빌딩 3~5층",
    "lat": 35.22925094,
    "lng": 128.5760021,
    "tel": "055-259-1500",
    "url": "http://www.workplus.go.kr/index.do"
  },
  {
    "sido": "경상남도",
    "sigungu": "창녕군",
    "name": "마산고용복지플러스센터",
    "addr": "경상남도 창원시 마산회원구 3·15대로 628 무학빌딩 3~5층",
    "lat": 35.22925094,
    "lng": 128.5760021,
    "tel": "055-259-1500",
    "url": "http://www.workplus.go.kr/index.do"
  },
  {
    "sido": "경상남도",
    "sigungu": "김해시",
    "name": "김해고용복지플러스센터",
    "addr": "경상남도 김해시 호계로 441",
    "lat": 35.22993599,
    "lng": 128.8844659,
    "tel": "055-330-6400",
    "url": "http://www.workplus.go.kr/index.do"
  },
  {
    "sido": "경상남도",
    "sigungu": "밀양시",
    "name": "밀양고용복지플러스센터",
    "addr": "경상남도 밀양시 백민로 69 성우빌딩",
    "lat": 35.49860923,
    "lng": 128.7464636,
    "tel": "055-356-8225",
    "url": "http://www.workplus.go.kr/index.do"
  },
  {
    "sido": "경상남도",
    "sigungu": "양산시",
    "name": "양산고용복지플러스센터",
    "addr": "경상남도 양산시 중부로 10",
    "lat": 35.33895214,
    "lng": 129.0279613,
    "tel": "055-379-2400",
    "url": "http://www.workplus.go.kr/index.do"
  },
  {
    "sido": "경상남도",
    "sigungu": "진주시",
    "name": "진주고용복지플러스센터",
    "addr": "경상남도 진주시 진양호로 563 안성빌딩 2~5층",
    "lat": 35.19414524,
    "lng": 128.0868639,
    "tel": "055-753-9090~1",
    "url": "http://www.workplus.go.kr/index.do"
  },
  {
    "sido": "경상남도",
    "sigungu": "사천시",
    "name": "진주고용복지플러스센터",
    "addr": "경상남도 진주시 진양호로 563 안성빌딩 2~5층",
    "lat": 35.19414524,
    "lng": 128.0868639,
    "tel": "055-753-9090~1",
    "url": "http://www.workplus.go.kr/index.do"
  },
  {
    "sido": "경상남도",
    "sigungu": "산청군",
    "name": "진주고용복지플러스센터",
    "addr": "경상남도 진주시 진양호로 563 안성빌딩 2~5층",
    "lat": 35.19414524,
    "lng": 128.0868639,
    "tel": "055-753-9090~1",
    "url": "http://www.workplus.go.kr/index.do"
  },
  {
    "sido": "경상남도",
    "sigungu": "하동군",
    "name": "하동고용복지플러스센터",
    "addr": "경상남도 하동군 진교면 민다리안길 61-3",
    "lat": 35.03058411,
    "lng": 127.9015258,
    "tel": "055-884-8219",
    "url": "http://www.workplus.go.kr/index.do"
  },
  {
    "sido": "경상남도",
    "sigungu": "남해군",
    "name": "하동고용복지플러스센터",
    "addr": "경상남도 하동군 진교면 민다리안길 61-3",
    "lat": 35.03058411,
    "lng": 127.9015258,
    "tel": "055-884-8219",
    "url": "http://www.workplus.go.kr/index.do"
  },
  {
    "sido": "경상남도",
    "sigungu": "거창군",
    "name": "거창고용복지플러스센터",
    "addr": "경남 거창군 거창읍 강남로 208",
    "lat": 35.68576468,
    "lng": 127.9196986,
    "tel": "055-943-0719",
    "url": "http://www.workplus.go.kr/index.do"
  },
  {
    "sido": "경상남도",
    "sigungu": "함양군",
    "name": "거창고용복지플러스센터",
    "addr": "경남 거창군 거창읍 강남로 208",
    "lat": 35.68576468,
    "lng": 127.9196986,
    "tel": "055-943-0719",
    "url": "http://www.workplus.go.kr/index.do"
  },
  {
    "sido": "경상남도",
    "sigungu": "합천군",
    "name": "거창고용복지플러스센터",
    "addr": "경남 거창군 거창읍 강남로 208",
    "lat": 35.68576468,
    "lng": 127.9196986,
    "tel": "055-943-0719",
    "url": "http://www.workplus.go.kr/index.do"
  },
  {
    "sido": "경상남도",
    "sigungu": "통영시",
    "name": "통영고용복지플러스센터",
    "addr": "경상남도 통영시 광도면 죽림1로 69",
    "lat": 34.87696053,
    "lng": 128.4206695,
    "tel": "055-650-1800",
    "url": "http://www.workplus.go.kr/index.do"
  },
  {
    "sido": "경상남도",
    "sigungu": "고성군",
    "name": "통영고용복지플러스센터",
    "addr": "경상남도 통영시 광도면 죽림1로 69",
    "lat": 34.87696053,
    "lng": 128.4206695,
    "tel": "055-650-1800",
    "url": "http://www.workplus.go.kr/index.do"
  },
  {
    "sido": "경상남도",
    "sigungu": "거제시",
    "name": "거제고용복지플러스센터",
    "addr": "경상남도 거제시 서문로5길 6 우형빌딩 3층",
    "lat": 34.88921855,
    "lng": 128.6210112,
    "tel": "055-730-1919",
    "url": "http://www.workplus.go.kr/index.do"
  },
  {
    "sido": "경상북도",
    "sigungu": "군위군",
    "name": "대구강북고용복지플러스센터",
    "addr": "대구광역시 북구 칠곡중앙대로 318  다은빌딩",
    "lat": 35.92403332,
    "lng": 128.5473297,
    "tel": "053-606-8000",
    "url": "http://www.workplus.go.kr/index.do"
  },
  {
    "sido": "경상북도",
    "sigungu": "고령군",
    "name": "대구달성고용복지플러스센터",
    "addr": "대구광역시 달성군 논공읍 논공중앙로34길 1",
    "lat": 35.72969159,
    "lng": 128.4540414,
    "tel": "053-605-9510",
    "url": "http://www.workplus.go.kr/index.do"
  },
  {
    "sido": "경상북도",
    "sigungu": "경산시",
    "name": "경산고용복지플러스센터",
    "addr": "경북 경산시 중앙로 85, 대구은행 경산영업무 3~4층",
    "lat": 35.82377353,
    "lng": 128.7362397,
    "tel": "053-667-6800",
    "url": "http://www.workplus.go.kr/index.do"
  },
  {
    "sido": "경상북도",
    "sigungu": "영천시",
    "name": "경산고용복지플러스센터",
    "addr": "경북 경산시 중앙로 85, 대구은행 경산영업무 3~4층",
    "lat": 35.82377353,
    "lng": 128.7362397,
    "tel": "053-667-6800",
    "url": "http://www.workplus.go.kr/index.do"
  },
  {
    "sido": "경상북도",
    "sigungu": "청도군",
    "name": "경산고용복지플러스센터",
    "addr": "경북 경산시 중앙로 85, 대구은행 경산영업무 3~4층",
    "lat": 35.82377353,
    "lng": 128.7362397,
    "tel": "053-667-6800",
    "url": "http://www.workplus.go.kr/index.do"
  },
  {
    "sido": "경상북도",
    "sigungu": "칠곡군",
    "name": "칠곡고용복지플러스센터",
    "addr": "경상북도 칠곡군 왜관읍 중앙로 146",
    "lat": 35.98792193,
    "lng": 128.3995277,
    "tel": "054-970-1919",
    "url": "http://www.workplus.go.kr/index.do"
  },
  {
    "sido": "경상북도",
    "sigungu": "성주군",
    "name": "칠곡고용복지플러스센터",
    "addr": "경상북도 칠곡군 왜관읍 중앙로 146",
    "lat": 35.98792193,
    "lng": 128.3995277,
    "tel": "054-970-1919",
    "url": "http://www.workplus.go.kr/index.do"
  },
  {
    "sido": "경상북도",
    "sigungu": "포항시",
    "name": "포항고용복지플러스센터",
    "addr": "경상북도 포항시 북구 중흥로 221",
    "lat": 36.02344259,
    "lng": 129.357948,
    "tel": "054-280-3000",
    "url": "http://www.workplus.go.kr/index.do"
  },
  {
    "sido": "경상북도",
    "sigungu": "영덕군",
    "name": "포항고용복지플러스센터",
    "addr": "경상북도 포항시 북구 중흥로 221",
    "lat": 36.02344259,
    "lng": 129.357948,
    "tel": "054-280-3000",
    "url": "http://www.workplus.go.kr/index.do"
  },
  {
    "sido": "경상북도",
    "sigungu": "울릉군",
    "name": "포항고용복지플러스센터",
    "addr": "경상북도 포항시 북구 중흥로 221",
    "lat": 36.02344259,
    "lng": 129.357948,
    "tel": "054-280-3000",
    "url": "http://www.workplus.go.kr/index.do"
  },
  {
    "sido": "경상북도",
    "sigungu": "울진군",
    "name": "울진출장센터",
    "addr": "경상북도 울진군 울진읍 읍내7길 10",
    "lat": 36.99409813,
    "lng": 129.4018725,
    "tel": "054-783-0841",
    "url": "http://www.workplus.go.kr/index.do"
  },
  {
    "sido": "경상북도",
    "sigungu": "경주시",
    "name": "경주고용복지플러스센터",
    "addr": "경상북도 경주시 원화로 396, 7~8층",
    "lat": 35.8558506,
    "lng": 129.2170932,
    "tel": "054-778-2500",
    "url": "http://www.workplus.go.kr/index.do"
  },
  {
    "sido": "경상북도",
    "sigungu": "구미시",
    "name": "구미고용복지플러스센터",
    "addr": "경상북도 구미시 백산로118",
    "lat": 36.11997565,
    "lng": 128.3460028,
    "tel": "054-440-3300",
    "url": "http://www.workplus.go.kr/index.do"
  },
  {
    "sido": "경상북도",
    "sigungu": "김천시",
    "name": "김천고용복지플러스센터",
    "addr": "경상북도 김천시 체육공원길 21",
    "lat": 36.11973266,
    "lng": 128.1445272,
    "tel": "054-429-8900",
    "url": "http://www.workplus.go.kr/index.do"
  },
  {
    "sido": "경상북도",
    "sigungu": "영주시",
    "name": "영주고용복지플러스센터",
    "addr": "경상북도 영주시 번영로 88",
    "lat": 36.81989132,
    "lng": 128.6287984,
    "tel": "054-639-1122",
    "url": "http://www.workplus.go.kr/index.do"
  },
  {
    "sido": "경상북도",
    "sigungu": "봉화군",
    "name": "영주고용복지플러스센터",
    "addr": "경상북도 영주시 번영로 88",
    "lat": 36.81989132,
    "lng": 128.6287984,
    "tel": "054-639-1122",
    "url": "http://www.workplus.go.kr/index.do"
  },
  {
    "sido": "경상북도",
    "sigungu": "문경시",
    "name": "문경고용복지플러스센터",
    "addr": "경상북도 문경시 매봉1길 67, 문경시산림조합건물 3~4층",
    "lat": 36.59052205,
    "lng": 128.1825498,
    "tel": "054-559-8200",
    "url": "http://www.workplus.go.kr/index.do"
  },
  {
    "sido": "경상북도",
    "sigungu": "상주시",
    "name": "문경고용복지플러스센터",
    "addr": "경상북도 문경시 매봉1길 67, 문경시산림조합건물 3~4층",
    "lat": 36.59052205,
    "lng": 128.1825498,
    "tel": "054-559-8200",
    "url": "http://www.workplus.go.kr/index.do"
  },
  {
    "sido": "경상북도",
    "sigungu": "안동시",
    "name": "안동고용복지플러스센터",
    "addr": "경상북도 안동시 경동로 400",
    "lat": 36.57097344,
    "lng": 128.7041373,
    "tel": "054-851-8061",
    "url": "http://www.workplus.go.kr/index.do"
  },
  {
    "sido": "경상북도",
    "sigungu": "예천군",
    "name": "안동고용복지플러스센터",
    "addr": "경상북도 안동시 경동로 400",
    "lat": 36.57097344,
    "lng": 128.7041373,
    "tel": "054-851-8061",
    "url": "http://www.workplus.go.kr/index.do"
  },
  {
    "sido": "경상북도",
    "sigungu": "의성군",
    "name": "안동고용복지플러스센터",
    "addr": "경상북도 안동시 경동로 400",
    "lat": 36.57097344,
    "lng": 128.7041373,
    "tel": "054-851-8061",
    "url": "http://www.workplus.go.kr/index.do"
  },
  {
    "sido": "경상북도",
    "sigungu": "청송군",
    "name": "안동고용복지플러스센터",
    "addr": "경상북도 안동시 경동로 400",
    "lat": 36.57097344,
    "lng": 128.7041373,
    "tel": "054-851-8061",
    "url": "http://www.workplus.go.kr/index.do"
  },
  {
    "sido": "경상북도",
    "sigungu": "영양군",
    "name": "안동고용복지플러스센터",
    "addr": "경상북도 안동시 경동로 400",
    "lat": 36.57097344,
    "lng": 128.7041373,
    "tel": "054-851-8061",
    "url": "http://www.workplus.go.kr/index.do"
  },
  {
    "sido": "전라남도",
    "sigungu": "나주시",
    "name": "광주고용복지플러스센터",
    "addr": "광주광역시 북구 금남로 121",
    "lat": 35.15540208,
    "lng": 126.9081734,
    "tel": "062-609-8500",
    "url": "http://www.workplus.go.kr/index.do"
  },
  {
    "sido": "전라남도",
    "sigungu": "화순군",
    "name": "광주고용복지플러스센터",
    "addr": "광주광역시 북구 금남로 121",
    "lat": 35.15540208,
    "lng": 126.9081734,
    "tel": "062-609-8500",
    "url": "http://www.workplus.go.kr/index.do"
  },
  {
    "sido": "전라남도",
    "sigungu": "곡성군",
    "name": "광주고용복지플러스센터",
    "addr": "광주광역시 북구 금남로 121",
    "lat": 35.15540208,
    "lng": 126.9081734,
    "tel": "062-609-8500",
    "url": "http://www.workplus.go.kr/index.do"
  },
  {
    "sido": "전라남도",
    "sigungu": "구례군",
    "name": "광주고용복지플러스센터",
    "addr": "광주광역시 북구 금남로 121",
    "lat": 35.15540208,
    "lng": 126.9081734,
    "tel": "062-609-8500",
    "url": "http://www.workplus.go.kr/index.do"
  },
  {
    "sido": "전라남도",
    "sigungu": "담양군",
    "name": "광주고용복지플러스센터",
    "addr": "광주광역시 북구 금남로 121",
    "lat": 35.15540208,
    "lng": 126.9081734,
    "tel": "062-609-8500",
    "url": "http://www.workplus.go.kr/index.do"
  },
  {
    "sido": "전라남도",
    "sigungu": "장성군",
    "name": "광주고용복지플러스센터",
    "addr": "광주광역시 북구 금남로 121",
    "lat": 35.15540208,
    "lng": 126.9081734,
    "tel": "062-609-8500",
    "url": "http://www.workplus.go.kr/index.do"
  },
  {
    "sido": "전라남도",
    "sigungu": "영광군",
    "name": "광주광산고용복지플러스센터",
    "addr": "광주광역시 광산구 하남대로 154",
    "lat": 35.1797125,
    "lng": 126.8103964,
    "tel": "062-960-3200",
    "url": "http://www.workplus.go.kr/index.do"
  },
  {
    "sido": "전라남도",
    "sigungu": "함평군",
    "name": "광주광산고용복지플러스센터",
    "addr": "광주광역시 광산구 하남대로 154",
    "lat": 35.1797125,
    "lng": 126.8103964,
    "tel": "062-960-3200",
    "url": "http://www.workplus.go.kr/index.do"
  },
  {
    "sido": "전라북도",
    "sigungu": "전주시",
    "name": "전주고용복지플러스센터",
    "addr": "전라북도 전주시 덕진구 태진로 114",
    "lat": 35.83111636,
    "lng": 127.1361361,
    "tel": "063-270-9100",
    "url": "http://www.workplus.go.kr/index.do"
  },
  {
    "sido": "전라북도",
    "sigungu": "무주군",
    "name": "전주고용복지플러스센터",
    "addr": "전라북도 전주시 덕진구 태진로 114",
    "lat": 35.83111636,
    "lng": 127.1361361,
    "tel": "063-270-9100",
    "url": "http://www.workplus.go.kr/index.do"
  },
  {
    "sido": "전라북도",
    "sigungu": "장수군",
    "name": "전주고용복지플러스센터",
    "addr": "전라북도 전주시 덕진구 태진로 114",
    "lat": 35.83111636,
    "lng": 127.1361361,
    "tel": "063-270-9100",
    "url": "http://www.workplus.go.kr/index.do"
  },
  {
    "sido": "전라북도",
    "sigungu": "진안군",
    "name": "전주고용복지플러스센터",
    "addr": "전라북도 전주시 덕진구 태진로 114",
    "lat": 35.83111636,
    "lng": 127.1361361,
    "tel": "063-270-9100",
    "url": "http://www.workplus.go.kr/index.do"
  },
  {
    "sido": "전라북도",
    "sigungu": "완주군",
    "name": "전주고용복지플러스센터",
    "addr": "전라북도 전주시 덕진구 태진로 114",
    "lat": 35.83111636,
    "lng": 127.1361361,
    "tel": "063-270-9100",
    "url": "http://www.workplus.go.kr/index.do"
  },
  {
    "sido": "전라북도",
    "sigungu": "임실군",
    "name": "전주고용복지플러스센터",
    "addr": "전라북도 전주시 덕진구 태진로 114",
    "lat": 35.83111636,
    "lng": 127.1361361,
    "tel": "063-270-9100",
    "url": "http://www.workplus.go.kr/index.do"
  },
  {
    "sido": "전라북도",
    "sigungu": "남원시",
    "name": "남원고용복지플러스센터",
    "addr": "전라북도 남원시 향단로 39",
    "lat": 35.40692781,
    "lng": 127.3823288,
    "tel": "063-630-3900",
    "url": "http://www.workplus.go.kr/index.do"
  },
  {
    "sido": "전라북도",
    "sigungu": "순창군",
    "name": "남원고용복지플러스센터",
    "addr": "전라북도 남원시 향단로 39",
    "lat": 35.40692781,
    "lng": 127.3823288,
    "tel": "063-630-3900",
    "url": "http://www.workplus.go.kr/index.do"
  },
  {
    "sido": "전라북도",
    "sigungu": "정읍시",
    "name": "정읍고용복지플러스센터",
    "addr": "전라북도 정읍시 수성택지3길 28 근로자종합복지관 1층",
    "lat": 35.5789181,
    "lng": 126.857578,
    "tel": "063-530-7500",
    "url": "http://www.workplus.go.kr/index.do"
  },
  {
    "sido": "전라북도",
    "sigungu": "익산시",
    "name": "익산고용복지플러스센터",
    "addr": "전라북도 익산시 익산대로 52길 11",
    "lat": 35.95204058,
    "lng": 126.9535606,
    "tel": "063-840-6500",
    "url": "http://www.workplus.go.kr/index.do"
  },
  {
    "sido": "전라북도",
    "sigungu": "김제시",
    "name": "김제고용복지플러스센터",
    "addr": "전라북도 김제시 화동길 105",
    "lat": 35.79870625,
    "lng": 126.893566,
    "tel": "063-540-8400",
    "url": "http://www.workplus.go.kr/index.do"
  },
  {
    "sido": "전라북도",
    "sigungu": "군산시",
    "name": "군산고용복지플러스센터",
    "addr": "전라북도 군산시 조촌로 62",
    "lat": 35.96954654,
    "lng": 126.7382073,
    "tel": "063-450-0600",
    "url": "http://www.workplus.go.kr/index.do"
  },
  {
    "sido": "전라북도",
    "sigungu": "부안군",
    "name": "부안고용복지플러스센터",
    "addr": "전라북도 부안군 부안읍 번영로 145 새만금빌딩",
    "lat": 35.72640597,
    "lng": 126.7364748,
    "tel": "063-581-7637",
    "url": "http://www.workplus.go.kr/index.do"
  },
  {
    "sido": "전라북도",
    "sigungu": "고창군",
    "name": "부안고용복지플러스센터",
    "addr": "전라북도 부안군 부안읍 번영로 145 새만금빌딩",
    "lat": 35.72640597,
    "lng": 126.7364748,
    "tel": "063-581-7637",
    "url": "http://www.workplus.go.kr/index.do"
  },
  {
    "sido": "전라남도",
    "sigungu": "목포시",
    "name": "목포고용복지플러스센터",
    "addr": "전라남도 목포시 평화로 5",
    "lat": 34.79764357,
    "lng": 126.4281225,
    "tel": "061-280-0500",
    "url": "http://www.workplus.go.kr/index.do"
  },
  {
    "sido": "전라남도",
    "sigungu": "신안군",
    "name": "목포고용복지플러스센터",
    "addr": "전라남도 목포시 평화로 5",
    "lat": 34.79764357,
    "lng": 126.4281225,
    "tel": "061-280-0500",
    "url": "http://www.workplus.go.kr/index.do"
  },
  {
    "sido": "전라남도",
    "sigungu": "진도군",
    "name": "목포고용복지플러스센터",
    "addr": "전라남도 목포시 평화로 5",
    "lat": 34.79764357,
    "lng": 126.4281225,
    "tel": "061-280-0500",
    "url": "http://www.workplus.go.kr/index.do"
  },
  {
    "sido": "전라남도",
    "sigungu": "무안군",
    "name": "목포고용복지플러스센터",
    "addr": "전라남도 목포시 평화로 5",
    "lat": 34.79764357,
    "lng": 126.4281225,
    "tel": "061-280-0500",
    "url": "http://www.workplus.go.kr/index.do"
  },
  {
    "sido": "전라남도",
    "sigungu": "영암군",
    "name": "목포고용복지플러스센터",
    "addr": "전라남도 목포시 평화로 5",
    "lat": 34.79764357,
    "lng": 126.4281225,
    "tel": "061-280-0500",
    "url": "http://www.workplus.go.kr/index.do"
  },
  {
    "sido": "전라남도",
    "sigungu": "강진군",
    "name": "해남고용복지플러스센터",
    "addr": "전라남도 해남군 중앙1로 61",
    "lat": 34.57089649,
    "lng": 126.6036966,
    "tel": "061-530-2908",
    "url": "http://www.workplus.go.kr/index.do"
  },
  {
    "sido": "전라남도",
    "sigungu": "해남군",
    "name": "해남고용복지플러스센터",
    "addr": "전라남도 해남군 중앙1로 61",
    "lat": 34.57089649,
    "lng": 126.6036966,
    "tel": "061-530-2908",
    "url": "http://www.workplus.go.kr/index.do"
  },
  {
    "sido": "전라남도",
    "sigungu": "완도군",
    "name": "해남고용복지플러스센터",
    "addr": "전라남도 해남군 중앙1로 61",
    "lat": 34.57089649,
    "lng": 126.6036966,
    "tel": "061-530-2908",
    "url": "http://www.workplus.go.kr/index.do"
  },
  {
    "sido": "전라남도",
    "sigungu": "장흥군",
    "name": "해남고용복지플러스센터",
    "addr": "전라남도 해남군 중앙1로 61",
    "lat": 34.57089649,
    "lng": 126.6036966,
    "tel": "061-530-2908",
    "url": "http://www.workplus.go.kr/index.do"
  },
  {
    "sido": "전라남도",
    "sigungu": "순천시",
    "name": "순천고용복지플러스센터",
    "addr": "전라남도 순천시 충효로 147",
    "lat": 34.95196314,
    "lng": 127.5159439,
    "tel": "061-720-9114",
    "url": "http://www.workplus.go.kr/index.do"
  },
  {
    "sido": "전라남도",
    "sigungu": "보성군",
    "name": "순천고용복지플러스센터",
    "addr": "전라남도 순천시 충효로 147",
    "lat": 34.95196314,
    "lng": 127.5159439,
    "tel": "061-720-9114",
    "url": "http://www.workplus.go.kr/index.do"
  },
  {
    "sido": "전라남도",
    "sigungu": "고흥군",
    "name": "순천고용복지플러스센터",
    "addr": "전라남도 순천시 충효로 147",
    "lat": 34.95196314,
    "lng": 127.5159439,
    "tel": "061-720-9114",
    "url": "http://www.workplus.go.kr/index.do"
  },
  {
    "sido": "전라남도",
    "sigungu": "여수시",
    "name": "여수고용복지플러스센터",
    "addr": "전라남도 여수시 웅천북로 33, 2층",
    "lat": 34.75207231,
    "lng": 127.6741932,
    "tel": "061-650-0155",
    "url": "http://www.workplus.go.kr/index.do"
  },
  {
    "sido": "전라남도",
    "sigungu": "광양시",
    "name": "광양고용복지플러스센터",
    "addr": "전라남도 광양시 중마로 커뮤니티센터 8층, 9층 410",
    "lat": 34.9464898,
    "lng": 127.7008472,
    "tel": "061-798-1900",
    "url": "http://www.workplus.go.kr/index.do"
  },
  {
    "sido": "충청남도",
    "sigungu": "금산군",
    "name": "대전고용복지플러스센터",
    "addr": "대전 서구 탄방동 문정로 56",
    "lat": 36.34644984,
    "lng": 127.3855819,
    "tel": "042-480-6000",
    "url": "http://www.workplus.go.kr/index.do"
  },
  {
    "sido": "충청남도",
    "sigungu": "공주시",
    "name": "공주고용복지플러스센터",
    "addr": "충남 공주시 번영1로 46 스타타워빌딩5층",
    "lat": 36.47173618,
    "lng": 127.1338314,
    "tel": "041-851-8501",
    "url": "http://www.workplus.go.kr/index.do"
  },
  {
    "sido": "충청남도",
    "sigungu": "논산시",
    "name": "논산고용복지플러스센터",
    "addr": "충남 논산시 중앙로 410번길 6",
    "lat": 36.20063611,
    "lng": 127.0890236,
    "tel": "041-731-8600",
    "url": "http://www.workplus.go.kr/index.do"
  },
  {
    "sido": "충청남도",
    "sigungu": "계룡시",
    "name": "논산고용복지플러스센터",
    "addr": "충남 논산시 중앙로 410번길 6",
    "lat": 36.20063611,
    "lng": 127.0890236,
    "tel": "041-731-8600",
    "url": "http://www.workplus.go.kr/index.do"
  },
  {
    "sido": "충청북도",
    "sigungu": "청주시",
    "name": "청주고용복지플러스센터",
    "addr": "충청북도 청주시 서원구 1순환로 642",
    "lat": 36.63621265,
    "lng": 127.4592506,
    "tel": "043-230-6700",
    "url": "http://www.workplus.go.kr/index.do"
  },
  {
    "sido": "충청북도",
    "sigungu": "청원군",
    "name": "청주고용복지플러스센터",
    "addr": "충청북도 청주시 서원구 1순환로 642",
    "lat": 36.63621265,
    "lng": 127.4592506,
    "tel": "043-230-6700",
    "url": "http://www.workplus.go.kr/index.do"
  },
  {
    "sido": "충청북도",
    "sigungu": "진천군",
    "name": "청주고용복지플러스센터",
    "addr": "충청북도 청주시 서원구 1순환로 642",
    "lat": 36.63621265,
    "lng": 127.4592506,
    "tel": "043-230-6700",
    "url": "http://www.workplus.go.kr/index.do"
  },
  {
    "sido": "충청북도",
    "sigungu": "괴산군",
    "name": "청주고용복지플러스센터",
    "addr": "충청북도 청주시 서원구 1순환로 642",
    "lat": 36.63621265,
    "lng": 127.4592506,
    "tel": "043-230-6700",
    "url": "http://www.workplus.go.kr/index.do"
  },
  {
    "sido": "충청북도",
    "sigungu": "보은군",
    "name": "청주고용복지플러스센터",
    "addr": "충청북도 청주시 서원구 1순환로 642",
    "lat": 36.63621265,
    "lng": 127.4592506,
    "tel": "043-230-6700",
    "url": "http://www.workplus.go.kr/index.do"
  },
  {
    "sido": "충청북도",
    "sigungu": "증평군",
    "name": "청주고용복지플러스센터",
    "addr": "충청북도 청주시 서원구 1순환로 642",
    "lat": 36.63621265,
    "lng": 127.4592506,
    "tel": "043-230-6700",
    "url": "http://www.workplus.go.kr/index.do"
  },
  {
    "sido": "충청북도",
    "sigungu": "옥천군",
    "name": "옥천고용복지플러스센터",
    "addr": "충청북도 옥천군 옥천읍 삼양로 91 문화회관 4층",
    "lat": 36.30349063,
    "lng": 127.5695098,
    "tel": "043-730-4100",
    "url": "http://www.workplus.go.kr/index.do"
  },
  {
    "sido": "충청북도",
    "sigungu": "영동군",
    "name": "옥천고용복지플러스센터",
    "addr": "충청북도 옥천군 옥천읍 삼양로 91 문화회관 4층",
    "lat": 36.30349063,
    "lng": 127.5695098,
    "tel": "043-730-4100",
    "url": "http://www.workplus.go.kr/index.do"
  },
  {
    "sido": "충청남도",
    "sigungu": "천안시",
    "name": "천안고용복지플러스센터",
    "addr": "충청남도 천안시 서북구 동서대로 163 충남타워 2-5층",
    "lat": 36.82588955,
    "lng": 127.1413035,
    "tel": "041-620-7400",
    "url": "http://www.workplus.go.kr/index.do"
  },
  {
    "sido": "충청남도",
    "sigungu": "당진시",
    "name": "천안고용복지플러스센터",
    "addr": "충청남도 천안시 서북구 동서대로 163 충남타워 2-5층",
    "lat": 36.82588955,
    "lng": 127.1413035,
    "tel": "041-620-7400",
    "url": "http://www.workplus.go.kr/index.do"
  },
  {
    "sido": "충청남도",
    "sigungu": "예산군",
    "name": "천안고용복지플러스센터",
    "addr": "충청남도 천안시 서북구 동서대로 163 충남타워 2-5층",
    "lat": 36.82588955,
    "lng": 127.1413035,
    "tel": "041-620-7400",
    "url": "http://www.workplus.go.kr/index.do"
  },
  {
    "sido": "충청남도",
    "sigungu": "아산시",
    "name": "아산고용복지플러스센터",
    "addr": "충청남도 아산시 시장길 아산시민문화복지회관(지상 2,4층) 29",
    "lat": 36.783214,
    "lng": 127.0022722,
    "tel": "041-570-5500",
    "url": "http://www.workplus.go.kr/index.do"
  },
  {
    "sido": "충청북도",
    "sigungu": "충주시",
    "name": "충주고용복지플러스센터",
    "addr": "충청북도 충주시 국원대로 13",
    "lat": 36.97402388,
    "lng": 127.9236275,
    "tel": "043-850-4000",
    "url": "http://www.workplus.go.kr/index.do"
  },
  {
    "sido": "충청북도",
    "sigungu": "제천시",
    "name": "제천고용복지플러스센터",
    "addr": "충청북도 제천시 금왕읍 내토로 441",
    "lat": 37.1301473,
    "lng": 128.2047248,
    "tel": "043-640-9310",
    "url": "http://www.workplus.go.kr/index.do"
  },
  {
    "sido": "충청북도",
    "sigungu": "단양군",
    "name": "제천고용복지플러스센터",
    "addr": "충청북도 제천시 금왕읍 내토로 441",
    "lat": 37.1301473,
    "lng": 128.2047248,
    "tel": "043-640-9310",
    "url": "http://www.workplus.go.kr/index.do"
  },
  {
    "sido": "충청북도",
    "sigungu": "음성군",
    "name": "음성고용복지플러스센터",
    "addr": "충청북도 음성군 무극로 213",
    "lat": 36.99129956,
    "lng": 127.5855973,
    "tel": "043-880-8600",
    "url": "http://www.workplus.go.kr/index.do"
  },
  {
    "sido": "충청남도",
    "sigungu": "보령시",
    "name": "보령고용복지플러스센터",
    "addr": "충청남도 보령시 보령남로 26",
    "lat": 36.34271492,
    "lng": 126.5996198,
    "tel": "041-930-6200",
    "url": "http://www.workplus.go.kr/index.do"
  },
  {
    "sido": "충청남도",
    "sigungu": "서천군",
    "name": "보령고용복지플러스센터",
    "addr": "충청남도 보령시 보령남로 26",
    "lat": 36.34271492,
    "lng": 126.5996198,
    "tel": "041-930-6200",
    "url": "http://www.workplus.go.kr/index.do"
  },
  {
    "sido": "충청남도",
    "sigungu": "부여군",
    "name": "보령고용복지플러스센터",
    "addr": "충청남도 보령시 보령남로 26",
    "lat": 36.34271492,
    "lng": 126.5996198,
    "tel": "041-930-6200",
    "url": "http://www.workplus.go.kr/index.do"
  },
  {
    "sido": "충청남도",
    "sigungu": "홍성군",
    "name": "보령고용복지플러스센터",
    "addr": "충청남도 보령시 보령남로 26",
    "lat": 36.34271492,
    "lng": 126.5996198,
    "tel": "041-930-6200",
    "url": "http://www.workplus.go.kr/index.do"
  },
  {
    "sido": "충청남도",
    "sigungu": "청양군",
    "name": "보령고용복지플러스센터",
    "addr": "충청남도 보령시 보령남로 26",
    "lat": 36.34271492,
    "lng": 126.5996198,
    "tel": "041-930-6200",
    "url": "http://www.workplus.go.kr/index.do"
  },
  {
    "sido": "충청남도",
    "sigungu": "서산시",
    "name": "서산고용복지플러스센터",
    "addr": "충청남도 서산시 호수공원1로 22 5층",
    "lat": 36.77186171,
    "lng": 126.4523792,
    "tel": "041-669-1919",
    "url": "http://www.workplus.go.kr/index.do"
  },
  {
    "sido": "충청남도",
    "sigungu": "태안군",
    "name": "서산고용복지플러스센터",
    "addr": "충청남도 서산시 호수공원1로 22 5층",
    "lat": 36.77186171,
    "lng": 126.4523792,
    "tel": "041-669-1919",
    "url": "http://www.workplus.go.kr/index.do"
  },
  {
    "sido": "제주특별자치도",
    "sigungu": "제주시",
    "name": "제주고용복지플러스센터",
    "addr": "제주 제주시 중앙로 165",
    "lat": 33.50438122,
    "lng": 126.5270712,
    "tel": "064-759-2450",
    "url": "http://www.workplus.go.kr/index.do"
  },
  {
    "sido": "제주특별자치도",
    "sigungu": "서귀포시",
    "name": "제주고용복지플러스센터",
    "addr": "제주 제주시 중앙로 165",
    "lat": 33.50438122,
    "lng": 126.5270712,
    "tel": "064-759-2450",
    "url": "http://www.workplus.go.kr/index.do"
  },
  {
    "sido": "세종특별자치시",
    "sigungu": "",
    "name": "세종고용복지플러스센터",
    "addr": "세종시 조치원읍 터미널안길 60",
    "lat": 36.60153996,
    "lng": 127.3031828,
    "tel": "044-865-3219",
    "url": "http://www.workplus.go.kr/index.do"
  }
]